stop_id,stop_code,stop_name,stop_desc,stop_lat,stop_lon,zone_id,stop_url,location_type,parent_station,stop_timezone,wheelchair_boarding,level_id,platform_code
01011101,01011101,Ancona-Green,Ancona-Green,41.151684120907696,16.738663639527534,,,0,,,0,,
01011102,01011102,Ancona(c.Arcobaleno),Ancona(c.Arcobaleno),41.15157554188902,16.736194802886896,,,0,,,0,,
01011103,01011103,Ancona-Iqbal Masih,Ancona-Iqbal Masih,41.151433527662505,16.738448776142672,,,0,,,0,,
01069001,01069001,Capitaneo-Ranieri,Capitaneo-Ranieri,41.15435779611697,16.761331256798428,,,0,,,0,,
01069002,01069002,Capitaneo-Speranza,Capitaneo-Speranza,41.15603739848723,16.762051242759753,,,0,,,0,,
01069003,01069003,Capitaneo-Nazionale,Capitaneo-Nazionale,41.158174868376136,16.762200645824464,,,0,,,0,,
01069101,01069101,Capitaneo-Nazionale,Capitaneo-Nazionale,41.15825407802512,16.762127371545052,,,0,,,0,,
01069102,01069102,Capitaneo-Speranza,Capitaneo-Speranza,41.15615013209564,16.761867061271825,,,0,,,0,,
01069103,01069103,Capitaneo-Ranieri,Capitaneo-Ranieri,41.154716296505526,16.761345438324682,,,0,,,0,,
01075102,01075102,Capruzzi-Sorrentino,Capruzzi-Sorrentino,41.11714258457989,16.87125106602856,,,0,,,0,,
01087003,01087003,Caravella-Azalee,Caravella-Azalee,41.15908932605871,16.73754784808368,,,0,,,0,,
01087101,01087101,Caravella-Mimose,Caravella-Delle Mimose,41.15958495209894,16.737339751377185,,,0,,,0,,
01096001,01096001,str.Catino(Cimitero),str.Catino (Cimitero),41.15569775236896,16.73572420604155,,,0,,,0,,
01096002,01096002,strada Catino 22,strada Catino 22,41.158826476250944,16.740213820419626,,,0,,,0,,
01096003,01096003,str.Catino (Stadio),str.Catino (Stadio),41.152135775267425,16.734309780375185,,,0,,,0,,
01096101,01096101,str. Catino-Azalee,str. Catino-Azalee,41.15896557181061,16.74034707368893,,,0,,,0,,
01096102,01096102,str.Catino (Stadio),str.Catino (Stadio),41.152087490479474,16.734127315352588,,,0,,,0,,
01118101,01118101,Conenna I,Conenna I,41.10271991051022,16.935352588758242,,,0,,,0,,
01118102,01118102,Conenna II,Conenna II,41.10336133621717,16.932746542273794,,,0,,,0,,
01118103,01118103,Conenna III,Conenna III,41.10488128540288,16.932925009077028,,,0,,,0,,
01135001,01135001,Colombo 298,Colombo 298,41.16848839152897,16.735165215852128,,,0,,,0,,
01135002,01135002,Colombo-Pansini,Colombo-Pansini,41.16849327216955,16.739206782383246,,,0,,,0,,
01135003,01135003,Colombo-Malta,Colombo-Malta,41.16733478715558,16.743424526374554,,,0,,,0,,
01135101,01135101,Colombo-Marconi,Colombo-Marconi,41.16401912258873,16.748840389279078,,,0,,,0,,
01135102,01135102,Colombo-Savona,Colombo-Savona,41.166628340728124,16.747511067324506,,,0,,,0,,
01135103,01135103,Colombo-Dalmazia,Colombo-Dalmazia,41.16749201617122,16.745148414106833,,,0,,,0,,
01135104,01135104,Colombo-Pansini,Colombo-Pansini,41.168299851208694,16.740712339203274,,,0,,,0,,
01135105,01135105,Colombo-Harris,Colombo-Harris,41.16909985281055,16.734622562641896,,,0,,,0,,
01135C00,01135C00,Colombo (Lido),Colombo (Lido),41.16915760549668,16.73236598679283,,,0,,,0,,
01142001,01142001,Duca D'Aosta-Guelfi,Duca D'Aosta-Guelfi,41.15357109373391,16.768061260007723,,,0,,,0,,
01142002,01142002,Duca D'Aosta-Capita.,Duca D'Aosta-Capitaneo,41.15514236914981,16.768632449538732,,,0,,,0,,
01143001,01143001,D'Annunzio (Carcere),D'Annunzio (Carcere),41.13588035845682,16.778785673009466,,,0,,,0,,
01143002,01143002,D'Annunzio(Aeroport),D'Annunzio(Aeroporto),41.1402782412395,16.778699282212354,,,0,,,0,,
01143004,01143004,D'Annunzio (CPT),D'Annunzio (CPT),41.143980559570664,16.77877148048419,,,0,,,0,,
01143101,01143101,Aeronautica Militare,Aeronautica Militare,41.14668587770942,16.778487003751195,,,0,,,0,,
01143102,01143102,D'Annunzio(Aeroport),D'Annunzio(Aeroporto),41.140694771724554,16.778534342838135,,,0,,,0,,
01143105,01143105,D'Annunzio-Ferrari,D'Annunzio-Ferrari,41.13579551978654,16.778680255747922,,,0,,,0,,
01143106,01143106,D'Annunzio (CPT),D'Annunzio (CPT),41.14398857623463,16.778484692536317,,,0,,,0,,
01189001,01189001,Narcisi-Azalee,Narcisi-Azalee,41.1601177055351,16.739107814569195,,,0,,,0,,
01189101,01189101,Narcisi-Caravella,Narcisi-Caravella,41.160225834538444,16.739103819192568,,,0,,,0,,
01226001,01226001,Diaz-Renna,Diaz-Renna,41.15338767848441,16.7655417286046,,,0,,,0,,
01226002,01226002,Diaz-Duca D'Aosta,Diaz-Duca D'Aosta,41.15308781227378,16.76746985175296,,,0,,,0,,
01233001,01233001,Europa (P. Principi),Europa (P. Principi),41.13356388631133,16.778976475534503,,,0,,,0,,
01233101,01233101,Europa (P. Principi),Europa (P. Principi),41.13383451864359,16.77916130591996,072006,,0,,,0,,
01233102,01233102,Europa-P.co Principi,Europa-P.co Principi,41.134264486277296,16.779790887954153,,,0,,,0,,
01250001,01250001,Felicità (Mercato),Felicità (Mercato),41.14679047769273,16.73638854350188,,,0,,,0,,
01250101,01250101,Felicità (Mercato),Felicità (Mercato),41.147022149764005,16.737544895133304,,,0,,,0,,
01251001,01251001,Aeroporto,Aeroporto,41.133779587469874,16.763278272875304,,,0,,,0,,
01251C00,01251C00,Aeroporto,Aeroporto,41.134061054169166,16.764543420032144,,,0,,,0,,
01310002,01310002,Lealtà-Ancona,Lealtà-Ancona,41.150948136269754,16.736890137487595,,,0,,,0,,
01310102,01310102,Lealtà-Ancona,Lealtà-Ancona,41.15093892404864,16.736743231485455,,,0,,,0,,
01310C00,01310C00,Lealtà,Lealtà,41.1485910900052,16.73716673126806,,,0,,,0,,
01322101,01322101,Lozupone,Lozupone,41.14553482212676,16.738630175348945,,,0,,,0,,
01322102,01322102,Lozupone-Castellucci,Lozupone-Castellucci,41.147242807281195,16.740802290614724,,,0,,,0,,
01322103,01322103,Masih-Pisicchio,Masih-Pisicchio,41.147847602107014,16.741916624665542,,,0,,,0,,
01339001,01339001,Macchie (Vigna Re),Macchie (Vigna Re),41.148204037276074,16.7706892268613,,,0,,,0,,
01339002,01339002,Macchie I,Macchie I,41.1468904429546,16.771962498192657,,,0,,,0,,
01339003,01339003,Macchie II,Macchie II,41.146031338142606,16.775359519055268,,,0,,,0,,
01339004,01339004,Macchie III,Macchie III,41.14700907697335,16.777212923561326,,,0,,,0,,
01353001,01353001,Iqbal Masih (scuola),Iqbal Masih (scuola),41.14926512542611,16.73798542535784,,,0,,,0,,
01353102,01353102,Masih-Ancona,Masih-Ancona,41.15100317166364,16.739122786048913,,,0,,,0,,
01378001,01378001,Napoli-Garibaldi,Napoli-Garibaldi,41.166028030838234,16.733472664010844,,,0,,,0,,
01378002,01378002,Napoli-Caladoria,Napoli-Caladoria,41.16543670523368,16.736464229823202,,,0,,,0,,
01378003,01378003,Napoli-Disfida,Napoli-Disfida,41.16496674271667,16.73891947542137,,,0,,,0,,
01378004,01378004,Napoli-D'Azeglio,Napoli-D'Azeglio,41.16409697228238,16.743127964153935,,,0,,,0,,
01378005,01378005,Napoli-Lembo,Napoli-Lembo,41.16348898355678,16.745662217270716,,,0,,,0,,
01378006,01378006,Napoli-Mossa,Napoli-Mossa,41.16284481354255,16.748080442592677,,,0,,,0,,
01378007,01378007,Napoli-Roma,Napoli-Roma,41.16163658748449,16.75268574980572,,,0,,,0,,
01378008,01378008,Napoli-Bonavoglia,Napoli-Bonavoglia,41.160697494764904,16.75598220475344,,,0,,,0,,
01378009,01378009,Napoli 6,Napoli 6,41.16012234597362,16.758191502147167,,,0,,,0,,
01378010,01378010,Napoli C dir. Bari,Napoli C dir. Bari,41.14595763211029,16.792209904271985,,,0,,,0,,
01378011,01378011,Napoli B dir. Bari,Napoli B dir. Bari,41.14283124648564,16.7994136273379,,,0,,,0,,
01378016,01378016,Napoli A dir. Bari,Napoli A dir. Bari,41.14021869734318,16.803015663767553,,,0,,,0,,
01378101,01378101,Napoli B dir. Foggia,Napoli B dir. Foggia,41.14379651708158,16.799329316048684,,,0,,,0,,
01378102,01378102,Napoli C dir. Foggia,Napoli C dir. Foggia,41.146402481012004,16.7926470484286,,,0,,,0,,
01378103,01378103,Napoli 11,Napoli 11,41.16023479802285,16.758221813520542,,,0,,,0,,
01378104,01378104,Napoli-Bonavoglia,Napoli-Bonavoglia,41.16091143161482,16.755689362923555,,,0,,,0,,
01378105,01378105,Napoli-Foggia,Napoli-Foggia,41.16172483268153,16.752604889634434,,,0,,,0,,
01378106,01378106,Napoli (Chiesa),Napoli (Chiesa),41.16273956940839,16.74874869495545,,,0,,,0,,
01378107,01378107,Napoli-Lembo,Napoli-Lembo,41.16350367802451,16.745843804554806,,,0,,,0,,
01378108,01378108,Napoli-Malta,Napoli-Malta,41.164339448254154,16.742390760625263,,,0,,,0,,
01378109,01378109,Napoli-Pansini,Napoli-Pansini,41.16499467658549,16.739054986415134,,,0,,,0,,
01378110,01378110,Napoli-Caladoria,Napoli-Caladoria,41.16554124011897,16.736515881402752,,,0,,,0,,
01378111,01378111,Napoli 233/C,Napoli 233/C,41.166170312267596,16.733585457571824,,,0,,,0,,
01378112,01378112,Napoli A dir. Foggia,Napoli A dir. Foggia,41.140186435734584,16.804193420031467,,,0,,,0,,
01379001,01379001,P. Harris I,P. Harris I,41.16738069329337,16.730717646208802,,,0,,,0,,
01379002,01379002,P. Harris I,P. Harris I,41.16740711852348,16.73072201894425,,,0,,,0,,
01379101,01379101,P. Harris II,P. Harris II,41.16744786987393,16.730618189995216,,,0,,,0,,
01379102,01379102,P. Harris II,P. Harris II,41.16747396514822,16.73063739910312,,,0,,,0,,
01384001,01384001,Nazionale (ASL),Nazionale (ASL),41.158344442411774,16.763007022005407,,,0,,,0,,
01384002,01384002,Nazionale(ParkHotel),Nazionale(Park Hotel),41.15510718273621,16.769892887026657,,,0,,,0,,
01384003,01384003,Nazionale (ponte) I,Nazionale (ponte) I,41.15294638009399,16.77394342663636,,,0,,,0,,
01384004,01384004,Nazionale (IPSIA) II,Nazionale (IPSIA) II,41.151781897449595,16.77653492124344,,,0,,,0,,
01384006,01384006,Nazionale (ponte) II,Nazionale (ponte) II,41.15296512279852,16.773897720659438,,,0,,,0,,
01384007,01384007,Nazionale (IPSIA) II,Nazionale (IPSIA) II,41.15181137699503,16.77641894772425,,,0,,,0,,
01384101,01384101,Nazionale (IPSIA) I,Nazionale (IPSIA) I,41.152018800282164,16.77630585822018,,,0,,,0,,
01384102,01384102,Nazionale (ponte) I,Nazionale (ponte) I,41.153043827752555,16.77409329070803,,,0,,,0,,
01384103,01384103,Nazionale (Miglia),Nazionale ( Miglia ),41.15491759788485,16.770784326790906,,,0,,,0,,
01384104,01384104,Nazionale (ASL),Nazionale (ASL),41.158514775353105,16.762950091604356,,,0,,,0,,
01384106,01384106,Nazionale (IPSIA) I,Nazionale (IPSIA) I,41.15206574678654,16.77618408535085,,,0,,,0,,
01384107,01384107,Nazionale (ponte) II,Nazionale (ponte) II,41.153045304759125,16.774036132278468,,,0,,,0,,
01387001,01387001,N. Green I,N. Green I,41.15770180879345,16.73962696369638,,,0,,,0,,
01387002,01387002,N. Green III,N. Green III,41.156367963205945,16.74032868121874,,,0,,,0,,
01387003,01387003,N. Green V,N. Green V,41.15450069538514,16.73996190769221,,,0,,,0,,
01387101,01387101,N. Green IV,N. Green IV,41.15690507265014,16.74165457954565,,,0,,,0,,
01387102,01387102,N. Green II,N. Green II,41.15532154029468,16.74077142641879,,,0,,,0,,
01388001,01388001,Nisio-Diaz,Nisio-Diaz,41.15273250450617,16.770226334203826,,,0,,,0,,
01388101,01388101,Nisio-Mitolo,Nisio-Mitolo,41.15277401639653,16.770521913137244,,,0,,,0,,
01452101,01452101,Rispetto (giardini),Rispetto (giardini),41.147675056810044,16.734254801504225,,,0,,,0,,
01455101,01455101,Vito Rosa-Castelluc.,Vito Rosa-Castellucci,41.14584200468906,16.7412781653518,,,0,,,0,,
01455102,01455102,V.Rosa-Pisicchio,V.Rosa-Pisicchio,41.1450156526002,16.73987968154093,,,0,,,0,,
01502001,01502001,Ten. Ranieri-Priolo,Ten. Ranieri-Priolo,41.15384550736235,16.76271706026004,,,0,,,0,,
01502101,01502101,Ten. Ranieri-Priolo,Ten. Ranieri-Priolo,41.15391108716381,16.763230549292526,,,0,,,0,,
01509101,01509101,Tolleranza-Lealtà,Tolleranza-Lealtà,41.149230408618195,16.735735137103735,,,0,,,0,,
01515104,01515104,Torricella-Pasquale,Torricella-Pasquale,41.146649217075996,16.742817775671465,,,0,,,0,,
01522102,01522102,Malta,Malta,41.16536880884485,16.74290765868306,,,0,,,0,,
01529001,01529001,Umberto I-Livorno,Umberto I-Livorno,41.16283803106304,16.751444892999857,,,0,,,0,,
01562101,01562101,V.Veneto-Sabotino,V.Veneto-Sabotino,41.15589637659596,16.76571556357446,,,0,,,0,,
01562102,01562102,V.Veneto-Palasciano,V.Veneto-Palasciano,41.15447318744232,16.76509287553865,,,0,,,0,,
01562103,01562103,V.Veneto-Sabotino,V.Veneto-Sabotino,41.15609035970425,16.76576635346838,,,0,,,0,,
01562104,01562104,V.Veneto-Palasciano,V.Veneto-Palasciano,41.154421730869274,16.76507140464583,,,0,,,0,,
02002001,02002001,AccoltiGil(Eurospin),AccoltiGil(Eurospin),41.11907299764291,16.805869755653337,,,0,,,0,,
02002002,02002002,Accolti Gil (AIA),Accolti Gil (AIA),41.11953986479471,16.809693983337304,,,0,,,0,,
02002003,02002003,Accolti Gil-Fuzio,Accolti Gil-Fuzio,41.119979271173975,16.812710198433216,,,0,,,0,,
02002101,02002101,Accolti Gil-Fuzio,Accolti Gil-Fuzio,41.1204467585519,16.813969371261617,,,0,,,0,,
02002102,02002102,Accolti Gil (Amgas),Accolti Gil (Amgas),41.119878736637965,16.8096328505038,,,0,,,0,,
02002103,02002103,AccoltiGil(Eurospin),Accolti Gil (Eurospin),41.11929886553519,16.80574395955025,,,0,,,0,,
02024001,02024001,Buozzi (Garofalo),Buozzi (Garofalo),41.10613364970581,16.8199100102912,,,0,,,0,,
02024002,02024002,Vill. dei Lavoratori,Vill. dei Lavoratori,41.107681650549374,16.822384868883358,,,0,,,0,,
02024003,02024003,Buozzi(distributore),Buozzi(distributore),41.11006651558417,16.826440843644747,,,0,,,0,,
02024004,02024004,Buozzi-str. Deserto,Buozzi - str. Deserto,41.1120754037547,16.829680582112076,,,0,,,0,,
02024005,02024005,Buozzi-Glomerelli,Buozzi-Glomerelli,41.115392404512505,16.835263613623752,,,0,,,0,,
02024006,02024006,Buozzi-Cheren,Buozzi-Cheren,41.116722698867086,16.83796356613089,,,0,,,0,,
02024007,02024007,Buozzi (ANAS),Buozzi (ANAS),41.1182426702476,16.842008516494694,,,0,,,0,,
02024101,02024101,Buozzi (ANAS),Buozzi (ANAS),41.118247230199174,16.841645404920563,,,0,,,0,,
02024102,02024102,Buozzi-Cheren,Buozzi-Cheren,41.11689981910307,16.838143227811244,,,0,,,0,,
02024103,02024103,Buozzi (Multicar),Buozzi (Multicar),41.11567991299798,16.83538186010366,,,0,,,0,,
02024104,02024104,Buozzi - str.Deserto,Buozzi - str.Deserto,41.112181209271895,16.82956874100634,,,0,,,0,,
02024105,02024105,Buozzi-Boggiano,Buozzi-Boggiano,41.11019319136795,16.826289116790342,,,0,,,0,,
02024106,02024106,Vill. dei Lavoratori,Vill. dei Lavoratori,41.10782088479452,16.822327756387587,,,0,,,0,,
02024107,02024107,Buozzi (Garofalo),Buozzi (Garofalo),41.10626141303906,16.819770863301237,,,0,,,0,,
02030101,02030101,Barisano-Cozzoli,Barisano-Cozzoli,41.12568765880599,16.795930966269744,,,0,,,0,,
02030102,02030102,Barisano-Granieri,Barisano-Granieri,41.12511385205061,16.792305315554685,,,0,,,0,,
02037001,02037001,Bonomo-De Benedictis,Bonomo-De Benedictis,41.130601598676996,16.798752266280555,,,0,,,0,,
02037002,02037002,Bonomo-Costantino,Bonomo-Costantino,41.13205320815553,16.802905234437702,,,0,,,0,,
02037102,02037102,Bonomo-De Benedictis,Bonomo-De Benedictis,41.13076872868612,16.79860189078271,,,0,,,0,,
02048001,02048001,Massa (case Breda),Massa (case Breda),41.12709904835386,16.7854060121725,,,0,,,0,,
02048002,02048002,Massa-Don Gnocchi,Massa-Don Gnocchi,41.128153177141684,16.78582937514968,,,0,,,0,,
02048003,02048003,Massa (Parco Verde),Massa (Parco Verde),41.12845199887366,16.787157055721128,,,0,,,0,,
02048102,02048102,Massa-Don Gnocchi,Massa-Don Gnocchi,41.12838545777446,16.785829237492706,,,0,,,0,,
02048103,02048103,Massa (case Breda),Massa (case Breda),41.12701569478736,16.785207592624552,,,0,,,0,,
02048104,02048104,Massa-Troccoli,Massa-Troccoli,41.127249042432496,16.78325836786068,,,0,,,0,,
02048105,02048105,Massa (Mercato),Massa (Mercato),41.128593128776764,16.781943529402596,,,0,,,0,,
02054101,02054101,Giaquinto-V.Beethov.,Giaquinto-V.Beethoven,41.123984329219056,16.79376408942378,,,0,,,0,,
02057002,02057002,Cacudi(I.Scolastico),Cacudi(I.Scolastico),41.12900412914112,16.79406414709142,,,0,,,0,,
02057004,02057004,Cacudi-D'Alesio,Cacudi-D'Alesio,41.1263715776505,16.78653901617318,,,0,,,0,,
02057005,02057005,Cacudi (farmacia),Cacudi (farmacia),41.12563243490304,16.788657606188796,,,0,,,0,,
02057101,02057101,Cacudi(I.Scolastico),Cacudi(I.Scolastico),41.129254063072935,16.794483782558817,,,0,,,0,,
02057102,02057102,Cacudi-De Ribera,Cacudi-De Ribera,41.12798260981184,16.792285350490232,,,0,,,0,,
02057103,02057103,Cacudi-Castelluccio,Cacudi-Castelluccio,41.12716851936888,16.78932211517891,,,0,,,0,,
02065001,02065001,Candura-Mazzoni,Candura-Mazzoni,41.12763898087672,16.803584982383835,,,0,,,0,,
02072101,02072101,Ospedale PS(S.Paolo),Ospedale PS(S.Paolo),41.118960692896444,16.78311804202263,,,0,,,0,,
02072C00,02072C00,Ospedale S. Paolo,Ospedale San Paolo,41.117406882239166,16.77950791767802,,,0,,,0,,
02103101,02103101,Ciusa-Ricchioni,Ciusa-Ricchioni,41.1280720018749,16.802056554341178,,,0,,,0,,
02112001,02112001,Columbo (RFI),Columbo (RFI),41.12042949896087,16.821827164270264,,,0,,,0,,
02112101,02112101,Columbo (RFI),Columbo (RFI),41.12048361530263,16.82189405460326,,,0,,,0,,
02123001,02123001,Corigliano-Lindemann,Corigliano-Lindemann,41.1224564390286,16.817544963607034,,,0,,,0,,
02123003,02123003,Corigliano-Columbo,Corigliano-Columbo,41.123032345710506,16.821087269810203,,,0,,,0,,
02123101,02123101,Corigliano(R.Puglia),Corigliano(R.Puglia),41.123139654901614,16.821131936909868,,,0,,,0,,
02123103,02123103,Corigliano-Lindemann,Corigliano-Lindemann,41.122821371571284,16.81917123390835,,,0,,,0,,
02141001,02141001,D'Alesio I,D'Alesio I,41.12710764375524,16.786949745587915,,,0,,,0,,
02141101,02141101,D'Alesio II,D'Alesio II,41.12711269247854,16.786651512106136,,,0,,,0,,
02145C00,02145C00,Dalfino (S.Paolo),Dalfino (S.Paolo),41.12401432848741,16.77781181681115,,,0,,,0,,
02147C00,02147C00,De Blasi (S.Paolo),De Blasi (S.Paolo),41.13046426699732,16.797420519779592,,,0,,,0,,
02150001,02150001,De Blasio (Radaelli),De Blasio (Radaelli),41.110814311578864,16.79071744802682,,,0,,,0,,
02150002,02150002,De Blasio (ENEL),De Blasio (ENEL),41.11290650982044,16.79827812351864,,,0,,,0,,
02150003,02150003,De Blasio (C&Carry),De Blasio (C&Carry),41.11333054276887,16.79980871555109,,,0,,,0,,
02150004,02150004,De Blasio-F.Philips,De Blasio-F.Philips,41.11447193089139,16.80561050739317,,,0,,,0,,
02150005,02150005,De Blasio (exManif.),De Blasio (ex Manif.),41.11490003070711,16.808164231385007,,,0,,,0,,
02150006,02150006,De Blasio (Lobuono),De Blasio (Lobuono),41.11583311306226,16.812301135459798,,,0,,,0,,
02150007,02150007,De Blasio (BariMax),De Blasio (BariMax),41.11629899097345,16.819870241022002,,,0,,,0,,
02150101,02150101,De Blasio (CNR),De Blasio (CNR),41.11621444280744,16.820891378902523,,,0,,,0,,
02150102,02150102,Vitalvernici,Vitalvernici,41.11637235822625,16.81276812517825,,,0,,,0,,
02150103,02150103,De Blasio-Milella,De Blasio-Milella,41.115334596925386,16.809211012881782,,,0,,,0,,
02150104,02150104,De Blasio-Jacobini,De Blasio-Jacobini,41.11474200479622,16.805974175389885,,,0,,,0,,
02150106,02150106,Puglia Espansi,Puglia Espansi,41.112891663974615,16.797012752652474,,,0,,,0,,
02150107,02150107,Isotta Fraschini,Isotta Fraschini,41.11109129053831,16.79086849031343,,,0,,,0,,
02174001,02174001,De Ribera-Regioni,De Ribera-Regioni,41.12295441260747,16.791361544416677,,,0,,,0,,
02174002,02174002,De Ribera-Giaquinto,De Ribera-Giaquinto,41.125005373561955,16.791602848888513,,,0,,,0,,
02174004,02174004,Polifunzionale PS,Polifunzionale PS,41.126408658303646,16.791892636158035,,,0,,,0,,
02174101,02174101,De Ribera-Giaquinto,De Ribera-Giaquinto,41.12497593086471,16.791396107316295,,,0,,,0,,
02174102,02174102,De Ribera-Regioni,De Ribera-Regioni,41.122497006932704,16.790932766293775,,,0,,,0,,
02200001,02200001,Margh. (Firestone),Margherite (Firestone),41.103140795817076,16.79710894484897,,,0,,,0,,
02200003,02200003,Murari (SS.96),Murari (SS.96),41.104443236394395,16.811930373097674,,,0,,,0,,
02200004,02200004,Margherite (Dalmine),Margherite (Dalmine),41.102028337385285,16.793075507882914,,,0,,,0,,
02200101,02200101,Murari (exCalabrese),Murari (exCalabrese),41.104968496000936,16.81391950469145,,,0,,,0,,
02200102,02200102,Margherite(ex VV.FF),Margherite (ex VV.FF),41.10319742955596,16.80400329785937,,,0,,,0,,
02200103,02200103,Marg. (Firestone),Margherite (Firestone),41.10329952534851,16.797166539452817,,,0,,,0,,
02200104,02200104,Margherite (Dalmine),Margherite (Dalmine),41.1019054464695,16.79253084869636,,,0,,,0,,
02200C00,02200C00,Margherite cap.,Margherite cap.,41.10496370875286,16.813947211395572,,,0,,,0,,
02202002,02202002,Camelie (Italutens.),Camelie (Italutensili),41.10745794882595,16.801354512475132,,,0,,,0,,
02202003,02202003,Camelie (SKF),Camelie (SKF),41.108787018952114,16.79699398499338,,,0,,,0,,
02202101,02202101,Camelie (SKF),Camelie (SKF),41.10884847016918,16.796708389094213,,,0,,,0,,
02202102,02202102,Cam. (Italutensili),Camelie (Italutensili),41.10729621247172,16.801338413095387,,,0,,,0,,
02202103,02202103,Pioneri-Melisurgo,Pioneri-Melisurgo,41.105874741552576,16.804427884247538,,,0,,,0,,
02206001,02206001,Mimose (Amenduni),Mimose (Amenduni),41.10371769523896,16.78951636921857,,,0,,,0,,
02206002,02206002,Mimose (Agrilevante),Mimose (Agrilevante),41.10614206837358,16.789249257985517,,,0,,,0,,
02206101,02206101,Mimose (Agrilevante),Mimose (Agrilevante),41.10664935889767,16.788968506177227,,,0,,,0,,
02206102,02206102,Mimose (Amenduni),Mimose (Amenduni),41.10382717653176,16.789345750452103,,,0,,,0,,
02210001,02210001,Regioni (Don Milani),Regioni (Don Milani),41.121643814503486,16.788286804914083,,,0,,,0,,
02210002,02210002,Regioni-Calitri,Regioni-Calitri,41.12294869466159,16.79334666846267,,,0,,,0,,
02210003,02210003,Regioni-Europa,Regioni-Europa,41.122994227732114,16.79884550494948,,,0,,,0,,
02210101,02210101,Regioni-Miglionico,Regioni-Miglionico,41.123199003855746,16.79801199649645,,,0,,,0,,
02210102,02210102,Regioni-Fiore,Regioni-Fiore,41.12299268223051,16.7925310234961,,,0,,,0,,
02210103,02210103,Regioni-Cascella,Regioni-Cascella,41.12178454491656,16.78796367904812,,,0,,,0,,
02210105,02210105,Regioni-Molise,Regioni-Molise,41.122974836859804,16.79462824211685,,,0,,,0,,
02234001,02234001,Distaso-Don Gnocchi,Distaso-Don Gnocchi,41.12956614402103,16.788315354306818,,,0,,,0,,
02234002,02234002,Don Gnocchi I,Don Gnocchi I,41.13066886771653,16.787875614868067,,,0,,,0,,
02234003,02234003,Don Gnocchi II,Don Gnocchi II,41.13095631287063,16.78653781271263,,,0,,,0,,
02234004,02234004,Don Gnocchi III,Don Gnocchi III,41.129420013794345,16.785692469648488,,,0,,,0,,
02240001,02240001,Europa (GdF),Europa (GdF),41.133739400958845,16.786145089492003,,,0,,,0,,
02240002,02240002,Europa-Cacudi,Europa-Cacudi,41.13031688344784,16.795082253644757,,,0,,,0,,
02240004,02240004,Europa-Mazzoni,Europa-Mazzoni,41.12510864415211,16.798305518571325,,,0,,,0,,
02240005,02240005,Europa-Sicilia,Europa-Sicilia,41.12287953099319,16.801840909704154,,,0,,,0,,
02240006,02240006,Europa-Mirizzi,Europa-Mirizzi,41.12309977393063,16.80402015641788,,,0,,,0,,
02240007,02240007,Europa-Tesoro,Europa-Tesoro,41.12350734360885,16.811464568414582,,,0,,,0,,
02240008,02240008,Europa (Lamasinata),Europa (Lamasinata),41.124054791829245,16.82678268595053,,,0,,,0,,
02240009,02240009,Europa-Torre deiCani,Europa-Torre dei Cani,41.124123420648225,16.829980136948645,,,0,,,0,,
02240010,02240010,Europa-Ascianghi,Europa-Ascianghi,41.12255671853764,16.834516198169073,,,0,,,0,,
02240011,02240011,Europa-Buozzi,Europa-Buozzi,41.11849001094078,16.839261412783774,,,0,,,0,,
02240101,02240101,Europa-Buozzi,Europa-Buozzi,41.11829348196028,16.839838283435178,,,0,,,0,,
02240102,02240102,Europa-Ascianghi,Europa-Ascianghi,41.122882007728656,16.834389005581063,,,0,,,0,,
02240103,02240103,Europa-Sopramarzo,Europa-Sopramarzo,41.12424952290282,16.829829866327806,,,0,,,0,,
02240104,02240104,Europa (Lamasinata),Europa (Lamasinata),41.124280044801466,16.82614596559298,,,0,,,0,,
02240105,02240105,Europa-Tesoro,Europa-Tesoro,41.12364196239824,16.81159465518102,,,0,,,0,,
02240106,02240106,Europa (ex Pirelli),Europa (ex Pirelli),41.123235430939815,16.803691254716902,,,0,,,0,,
02240107,02240107,Giudice di Pace,Giudice di Pace,41.1229357582912,16.801691017992777,,,0,,,0,,
02240108,02240108,Europa-Mazzoni,Europa-Mazzoni,41.12512827177164,16.798467256214163,,,0,,,0,,
02240110,02240110,Europa-Cacudi,Europa-Cacudi,41.130400431626505,16.795481514803722,,,0,,,0,,
02240111,02240111,Europa (GdF),Europa (GdF),41.13393408910072,16.78654905877665,,,0,,,0,,
02241101,02241101,Cittadella Scienza,Cittadella Scienza,41.12402641147328,16.8178373933512,,,0,,,0,,
02242001,02242001,Variante Europa I,Variante Europa I,41.12417976111565,16.82291714223107,,,0,,,0,,
02242101,02242101,Variante Europa II,Variante Europa II,41.12434115247722,16.82260739312797,,,0,,,0,,
02246001,02246001,F.lli Philips,F.lli Philips,41.11249035740578,16.806618710126195,,,0,,,0,,
02255001,02255001,Ferorelli,Ferorelli,41.110336796061105,16.807839205442086,,,0,,,0,,
02287C00,02287C00,Dep. Amtab,Dep. Amtab,41.1152630691821,16.804459062603254,,,0,,,0,,
02290001,02290001,Granieri-Pugliese,Granieri-Pugliese,41.12647587867343,16.79583413043021,,,0,,,0,,
02301001,02301001,La Rotella (Peugeot),La Rotella (Peugeot),41.12322254911263,16.823155504762784,,,0,,,0,,
02301002,02301002,La Rotella-Europa,La Rotella-Europa,41.12359993415782,16.82530174399096,,,0,,,0,,
02301101,02301101,La Rotella-Europa,La Rotella-Europa,41.12372747016002,16.82507297751961,,,0,,,0,,
02301102,02301102,La Rotella (Peugeot),La Rotella (Peugeot),41.123347020959635,16.822748477684097,,,0,,,0,,
02309002,02309002,Lazio-Puglia,Lazio-Puglia,41.1196551260991,16.796054075145623,,,0,,,0,,
02315001,02315001,Lindemann-Melisurgo,Lindemann-Melisurgo,41.105158682109604,16.807204705519187,,,0,,,0,,
02315002,02315002,Fuzio (AMIU),Fuzio (AMIU),41.11979162478283,16.815387547163056,,,0,,,0,,
02315003,02315003,Lindemann-Corigliano,Lindemann-Corigliano,41.120893787116394,16.815680731617668,,,0,,,0,,
02315102,02315102,Fuzio-Accolti Gil,Fuzio-Accolti Gil,41.11975902423578,16.81518426362158,,,0,,,0,,
02319001,02319001,Lonero-Tramonte,Lonero-Tramonte,41.13005050862546,16.80118471374262,,,0,,,0,,
02319101,02319101,Lonero-Tramonte,Lonero-Tramonte,41.130055481693,16.80101522593991,,,0,,,0,,
02327101,02327101,Lovri,Lovri,41.10917211357065,16.815502471452767,,,0,,,0,,
02345001,02345001,Pagano-Crispi,Pagano-Crispi,41.120816163112146,16.849767908694016,,,0,,,0,,
02360001,02360001,Miglionico-Regioni,Miglionico-Regioni,41.12374619674216,16.79706259549148,,,0,,,0,,
02360002,02360002,Miglionico-Barisano,Miglionico-Barisano,41.125256072021195,16.796959492068854,,,0,,,0,,
02363001,02363001,Molise-Regioni,Molise-Regioni,41.12275861586458,16.795510276730283,,,0,,,0,,
02363102,02363102,Molise (scuola),Molise (scuola),41.1214199925735,16.79647088759239,,,0,,,0,,
02408001,02408001,Mazzoni-Candura,Mazzoni-Candura,41.1258929805326,16.79939871665528,,,0,,,0,,
02408002,02408002,Mazzoni-Leotta,Mazzoni-Leotta,41.12629192448017,16.800800197335633,,,0,,,0,,
02408003,02408003,Mazzoni-Ciusa,Mazzoni-Ciusa,41.126797739604164,16.802499259407224,,,0,,,0,,
02408101,02408101,Mazzoni-Ciusa,Mazzoni-Ciusa,41.126855522666524,16.802369092951814,,,0,,,0,,
02408102,02408102,Mazzoni-Leotta,Mazzoni-Leotta,41.12638079599856,16.80076406987124,,,0,,,0,,
02408103,02408103,Mazzoni-Candura,Mazzoni-Candura,41.125921503132716,16.799184867810688,,,0,,,0,,
02424101,02424101,Pugliese-Barisano,Pugliese-Barisano,41.12594850799335,16.795115757539026,,,0,,,0,,
02437101,02437101,Puglia-Molise,Puglia-Molise,41.121407901038175,16.797099454619946,,,0,,,0,,
02453001,02453001,Romita-Sicilia,Romita-Sicilia,41.12070024882441,16.798387548947087,,,0,,,0,,
02453101,02453101,Romita (chiesa),Romita (chiesa),41.119981240423044,16.79581645766544,,,0,,,0,,
02458001,02458001,Rotondo-Cardinale,Rotondo-Cardinale,41.124626345170746,16.779632619338276,,,0,,,0,,
02458101,02458101,Rotondo-Cardinale,Rotondo-Cardinale,41.12478970687518,16.77969987238746,,,0,,,0,,
02512001,02512001,Tramonte (Perotti),Tramonte (Perotti),41.12828622543082,16.79787653743577,,,0,,,0,,
02512101,02512101,Tramonte (Perotti),Tramonte (Perotti),41.12834931946721,16.79783842956318,,,0,,,0,,
02516001,02516001,Troccoli 12D,Troccoli 12D,41.12566115659169,16.781158962354525,,,0,,,0,,
02516003,02516003,Troccoli 6F,Troccoli 6F,41.124886701802666,16.783207521856024,,,0,,,0,,
02516004,02516004,Troccoli 6F fronte,Troccoli 6F fronte,41.124732674968605,16.782697496848836,,,0,,,0,,
02516005,02516005,Troccoli 6,Troccoli 6,41.12639628326185,16.783271924930336,,,0,,,0,,
02516101,02516101,Troccoli 18B,Troccoli 18B,41.127645503341284,16.78067151756435,,,0,,,0,,
02516106,02516106,Arturo Bianco,Arturo Bianco,41.12548281926162,16.78043817464139,,,0,,,0,,
02516107,02516107,Troccoli (metrò),Troccoli (metrò),41.1240593088206,16.78456348780395,072006,,0,,,0,,
02516108,02516108,Troccoli 14A,Troccoli 14A,41.127175233497134,16.780577326455774,,,0,,,0,,
02516109,02516109,Campione,Campione,41.112526952437214,16.864712213095206,,,0,,,0,,
02543001,02543001,Val d'Aosta-Piemonte,Val d'Aosta-Piemonte,41.1183942796734,16.78790531386464,,,0,,,0,,
02549001,02549001,Veneto-Verona,Veneto-Verona,41.12110699002103,16.78968708890081,,,0,,,0,,
02549101,02549101,Veneto-Lombardia,Veneto-Lombardia,41.12069993270189,16.789538916167114,,,0,,,0,,
02549102,02549102,Veneto-Alessandria,Veneto-Alessandria,41.11966791174097,16.79082493436592,,,0,,,0,,
02553001,02553001,Vittime di Guerra,Vittime di Guerra,41.12511996710947,16.784447754456703,,,0,,,0,,
02564001,02564001,Zippitelli-Buozzi,Zippitelli-Buozzi,41.10885227952632,16.822409198801456,,,0,,,0,,
02564002,02564002,Zippitelli III,Zippitelli III,41.10936629411556,16.819838203326764,,,0,,,0,,
02564003,02564003,Zippitelli VI,Zippitelli VI,41.115303150290394,16.822008427977963,,,0,,,0,,
02564004,02564004,Zippitelli V,Zippitelli V,41.11305590572126,16.820562837337317,072006,,0,,,0,,
02564102,02564102,Zippitelli IV,Zippitelli IV,41.10908684124299,16.819727717814093,,,0,,,0,,
02564103,02564103,Autotrend,Autotrend,41.10868128120335,16.82239794799455,,,0,,,0,,
03033001,03033001,Bartolo (M.Polo),Bartolo (M.Polo),41.09539367398703,16.857631072054524,,,0,,,0,,
03033101,03033101,Bartolo (scuola),Bartolo (scuola),41.09465756447889,16.857490550463854,,,0,,,0,,
03051002,03051002,Rosalba-dell'Andro,Rosalba-dell'Andro,41.09536379203509,16.85488031167538,,,0,,,0,,
03051003,03051003,Rosalba-D'Aquino,Rosalba-D'Aquino,41.097477762627996,16.855614022608837,,,0,,,0,,
03051C00,03051C00,Parco Domingo,Parco Domingo,41.09219700599112,16.854345277648974,,,0,,,0,,
03072102,03072102,Ospedale (S.Paolo),Ospedale (S.Paolo),41.11769177021383,16.781023879760372,,,0,,,0,,
03075003,03075003,Capruzzi (portici),Capruzzi (portici),41.11680677889691,16.866740383208896,,,0,,,0,,
03075004,03075004,Capruzzi-Albanese,Capruzzi-Albanese,41.11649048223462,16.8619528327423,,,0,,,0,,
03075101,03075101,Capruzzi (binari),Capruzzi (binari),41.11691577262092,16.8667790711902,,,0,,,0,,
03075102,03075102,Capruzzi-Ennio,Capruzzi-Ennio,41.11671269096576,16.864088581899544,,,0,,,0,,
03094001,03094001,S.Caterina (FAVER),S.Caterina (FAVER),41.08930535705068,16.82232655150922,,,0,,,0,,
03094002,03094002,S.Caterina(campetti),S.Caterina(campetti),41.09111579766151,16.824206725337675,,,0,,,0,,
03094003,03094003,S. Caterina - SS.16,S. Caterina - SS.16,41.09308065341144,16.82682119686798,,,0,,,0,,
03094004,03094004,S.Caterina I,S.Caterina I,41.098866316205196,16.830270644585283,,,0,,,0,,
03094101,03094101,S.Caterina II,S.Caterina II,41.09901925946965,16.83022200705582,,,0,,,0,,
03094C00,03094C00,S.Caterina cap.,S.Caterina capolinea,41.09868289781679,16.829037755758293,,,0,,,0,,
03101101,03101101,Cifarelli-Colapietro,Cifarelli-Colapietro,41.11687096386439,16.853414697514484,,,0,,,0,,
03101102,03101102,Conservatorio,Conservatorio,41.11622941760839,16.857800716779757,,,0,,,0,,
03120001,03120001,Concilio-Innocenzo,Concilio-Innocenzo,41.10210264266603,16.86498647185356,,,0,,,0,,
03120002,03120002,Piazzetta dei Papi,Piazzetta dei Papi,41.10401745259535,16.865387269532498,,,0,,,0,,
03120003,03120003,Mercato S.Scolastica,Mercato S. Scolastica,41.10662028349384,16.865283916818754,,,0,,,0,,
03120101,03120101,Piazzetta dei Papi,Piazzetta dei Papi,41.10429668713133,16.864628600185526,,,0,,,0,,
03120102,03120102,C. Vaticano II 75,C. Vaticano II 75,41.10226205080121,16.864720685284798,,,0,,,0,,
03120103,03120103,Mercato S.Scolastica,Mercato S. Scolastica,41.10640804439165,16.865015538542316,072006,,0,,,0,,
03124101,03124101,Cotugno-Flacco,Cotugno-Flacco,41.10734349127779,16.85972636793196,,,0,,,0,,
03124102,03124102,Cotugno 15,Cotugno 15,41.1074910743325,16.8574944581683,,,0,,,0,,
03124103,03124103,Cotugno-Mazzitelli,Cotugno-Mazzitelli,41.10766721589284,16.852617853058458,,,0,,,0,,
03124104,03124104,Polipark,Polipark,41.10873213714159,16.856546931424077,,,0,,,0,,
03168001,03168001,DeLaurentis-Lucarel.,DeLaurentis-Lucarelli,41.09348134972267,16.86440065999934,,,0,,,0,,
03168002,03168002,DeLaurentis-Dioguar.,DeLaurentis-Dioguardi,41.09487881545853,16.86449953545709,,,0,,,0,,
03168003,03168003,DeLaurentis-Carrante,DeLaurentis-Carrante,41.09659072465607,16.864620186235012,,,0,,,0,,
03168004,03168004,DeLaurentis-Gandhi,DeLaurentis-Gandhi,41.09835551584518,16.86471772507795,,,0,,,0,,
03168005,03168005,DeLaurentis-Kennedy,DeLaurentis-Kennedy,41.10053577529124,16.864872379676665,,,0,,,0,,
03168101,03168101,DeLaurentis-M.L.King,De Laurentis-M.L.King,41.10056523557158,16.864584141368923,,,0,,,0,,
03168102,03168102,Laurentis-st.caffè,Laurentis-st.caffè,41.09872469868005,16.8644233213017,,,0,,,0,,
03168103,03168103,Laurentis-Dioguardi,Laurentis-Dioguardi,41.09676683947119,16.864222900236776,,,0,,,0,,
03168104,03168104,DeLaurentis-Dioguar.,DeLaurentis-Dioguardi,41.094914185855764,16.864059249918213,,,0,,,0,,
03168105,03168105,DeLaurentis-Lucarel.,DeLaurentis-Lucarelli,41.09348781128859,16.86398024195852,,,0,,,0,,
03198101,03198101,Dell'Andro-Bartolo,Dell'Andro-Bartolo,41.09613201933944,16.856204767106895,,,0,,,0,,
03227001,03227001,Dioguardi(tribunale),Dioguardi(tribunale),41.096419297503104,16.861964175660166,,,0,,,0,,
03232101,03232101,Don Guanella,Don Guanella,41.09472163387243,16.861798368712485,,,0,,,0,,
03237101,03237101,Ennio-Capruzzi,Ennio-Capruzzi,41.11615488500924,16.862574544994228,,,0,,,0,,
03237104,03237104,Ennio (chiesa),Ennio (chiesa),41.114849819516394,16.862098551918738,,,0,,,0,,
03237C00,03237C00,Policlinico,Policlinico,41.112707816373046,16.862049199735697,,,0,,,0,,
03270001,03270001,Maugeri,Maugeri,41.10646040559431,16.851059446636334,072006,,0,,,0,,
03270002,03270002,Bitritto-Frati,Bitritto-Frati,41.09942407542301,16.84539095661882,,,0,,,0,,
03270101,03270101,Bellomo-M. Losacco,Bellomo-M. Losacco,41.106449728632484,16.850916576515985,,,0,,,0,,
03270103,03270103,Bellomo (chiesa),Bellomo (chiesa),41.1012383308451,16.847673690852297,,,0,,,0,,
03270104,03270104,Bitritto-Partipilo,Bitritto-Partipilo,41.09948050937487,16.84520933164348,,,0,,,0,,
03279001,03279001,Giov. XXIII-Lioce,Giov. XXIII-Lioce,41.10701287192185,16.86411730089688,,,0,,,0,,
03279002,03279002,Giov. XXIII-Petroni,Giov. XXIII-Petroni,41.10701479444778,16.86827341067741,,,0,,,0,,
03279101,03279101,Giovanni XXIII 19,Giovanni XXIII 19,41.10719851021089,16.871211825749402,,,0,,,0,,
03279102,03279102,Tridente,Tridente,41.10727755483898,16.868242643993284,,,0,,,0,,
03279103,03279103,Giov. XXIII-Nitti,Giov. XXIII-Nitti,41.10729462923379,16.864297818212986,,,0,,,0,,
03285001,03285001,Don Guanella fronte,Don Guanella fronte,41.090193950150876,16.86602135519963,,,0,,,0,,
03285002,03285002,Petroni-Lucarelli,Petroni-Lucarelli,41.09331294800385,16.866448448117985,,,0,,,0,,
03285003,03285003,Petroni (Osp. Mil.),Petroni (Osp. Mil.),41.09608439529417,16.867626790693404,,,0,,,0,,
03285004,03285004,Petroni-C.Rotto,Petroni-C.Rotto,41.09844482726546,16.867518698171,,,0,,,0,,
03285005,03285005,Petroni-M.L.King,Petroni-M.L.King,41.10019922723598,16.867382554215855,,,0,,,0,,
03285006,03285006,Petroni-Kennedy,Petroni-Kennedy,41.10159748068885,16.867257278610793,,,0,,,0,,
03285007,03285007,Petroni-San Michele,Petroni-San Michele,41.103854970951524,16.867216398695366,,,0,,,0,,
03285008,03285008,Carcere Minorile,Carcere Minorile,41.10614063751242,16.867728225838533,,,0,,,0,,
03285009,03285009,Petroni-Giov. XXIII,Petroni-Giov. XXIII,41.10763774240881,16.867797393913897,,,0,,,0,,
03285010,03285010,Petroni-Piave,Petroni-Piave,41.10895123959467,16.867746796114968,,,0,,,0,,
03285012,03285012,Caserma Rossani,Caserma Rossani,41.11571690228864,16.868811458124604,,,0,,,0,,
03285102,03285102,Petroni 41D,Petroni 41D,41.11253198978117,16.868487642164872,,,0,,,0,,
03285103,03285103,Petroni-Montegrappa,Petroni-Montegrappa,41.10970789419123,16.86776596344513,,,0,,,0,,
03285104,03285104,Petroni-Giov. XXIII,Petroni-Giov. XXIII,41.10764320197087,16.86764478787778,,,0,,,0,,
03285105,03285105,Petroni (mercato),Petroni (mercato),41.10631681112917,16.867589904085154,,,0,,,0,,
03285106,03285106,Petroni-Urbano VI,Petroni-Urbano VI,41.10383604094582,16.867057161000975,,,0,,,0,,
03285107,03285107,Petroni-Kennedy,Petroni-Kennedy,41.10150207125471,16.867133001762287,,,0,,,0,,
03285108,03285108,Petroni-L.King,Petroni-L.King,41.10024622469508,16.867214788879544,,,0,,,0,,
03285109,03285109,Petroni-C. Rotto,Petroni-C. Rotto,41.09818905334799,16.867382524382958,,,0,,,0,,
03285110,03285110,Petroni (Osp. Mil.),Petroni (Osp. Mil.),41.096101953493616,16.867464596525664,,,0,,,0,,
03285111,03285111,Petroni-Pende,Petroni-Pende,41.093944752147486,16.8664910659499,,,0,,,0,,
03285112,03285112,Petroni (chiesa),Petroni (chiesa),41.09043828342751,16.865770449693933,,,0,,,0,,
03285C00,03285C00,Petroni 19B,Petroni 19B,41.11588669870643,16.868652283229014,,,0,,,0,,
03298001,03298001,J.F. Kennedy VI,J.F. Kennedy VI,41.10113532042121,16.861646441130883,,,0,,,0,,
03298002,03298002,J.F. Kennedy IV,J.F. Kennedy IV,41.1008928034115,16.8653922345297,,,0,,,0,,
03298003,03298003,J.F. Kennedy II,J.F. Kennedy II,41.10069057485458,16.86922757611244,,,0,,,0,,
03298101,03298101,J.F. Kennedy I,J.F. Kennedy I,41.100917267224695,16.86910253253462,,,0,,,0,,
03298102,03298102,J.F. Kennedy III,J.F. Kennedy III,41.101112018435224,16.86564286286471,,,0,,,0,,
03298103,03298103,J.F. Kennedy V,J.F. Kennedy V,41.101331180414114,16.861660430760853,,,0,,,0,,
03299001,03299001,Kennedy-L.King,Kennedy-L.King,41.10091681575213,16.859323349140535,,,0,,,0,,
03299101,03299101,R. Kennedy 1E,R. Kennedy 1E,41.100684822262274,16.85911443964185,,,0,,,0,,
03309001,03309001,Lazio-Toscana,Lazio-Toscana,41.11934206616887,16.792747311086952,,,0,,,0,,
03314001,03314001,Lembo-Petroni,Lembo-Petroni,41.11334776626347,16.867895771482612,,,0,,,0,,
03314101,03314101,Lembo-Petroni,Lembo-Petroni,41.11345901635673,16.868011888360886,,,0,,,0,,
03321001,03321001,Lucarelli-Rosalba,Lucarelli-Rosalba,41.093347112582194,16.85488251152852,,,0,,,0,,
03321002,03321002,Lucarelli (farmacia),Lucarelli (farmacia),41.09308048069916,16.85998718591925,,,0,,,0,,
03321003,03321003,Lucarelli-Laurentis,Lucarelli-Laurentis,41.092976222075265,16.86267963948209,,,0,,,0,,
03321102,03321102,Lucarelli-Guanella,Lucarelli-Guanella,41.093270021451005,16.862123198629465,,,0,,,0,,
03321103,03321103,Lucarelli (portici),Lucarelli (portici),41.09326167878831,16.8600060225067,,,0,,,0,,
03326001,03326001,M.T. di Calcutta,M.T. di Calcutta,41.098970174461655,16.85728511890326,,,0,,,0,,
03328101,03328101,Matarrese-Caccuri,Matarrese-Caccuri,41.09813648177614,16.85417985683528,,,0,,,0,,
03328102,03328102,Fac. Economia,Fac. Economia,41.09645040842094,16.85429607907745,,,0,,,0,,
03331002,03331002,Unieuro,Unieuro,41.09733559566926,16.832442108025365,,,0,,,0,,
03331003,03331003,Poltronesofà,Poltronesofà,41.09657731471695,16.835184099632794,,,0,,,0,,
03348001,03348001,King-Che Guevara,King-Che Guevara,41.10066270264705,16.857356551041242,,,0,,,0,,
03348101,03348101,King-Che Guevara,King-Che Guevara,41.100782128212245,16.85752263064584,,,0,,,0,,
03364101,03364101,Mitolo,Mitolo,41.091471161359706,16.860989841722695,,,0,,,0,,
03393001,03393001,Flacco-De Ferraris,Flacco-De Ferraris,41.10825742025792,16.860200870712347,,,0,,,0,,
03393002,03393002,Flacco-Zuccaro,Flacco-Zuccaro,41.11066896309246,16.861997202727345,,,0,,,0,,
03393101,03393101,Flacco (Policlinico),Flacco (Policlinico),41.110781229706454,16.86181506066353,,,0,,,0,,
03393102,03393102,Flacco-Storelli,Flacco-Storelli,41.10882208911492,16.860122709515778,,,0,,,0,,
03411001,03411001,Pio XII (farmacia),Pio XII (farmacia),41.10283577546281,16.85961427696422,,,0,,,0,,
03411002,03411002,Pio XII-Pansini,Pio XII-Pansini,41.10553878857726,16.859897704889242,,,0,,,0,,
03411101,03411101,Oncologico,Oncologico,41.10571335148,16.85975171077109,,,0,,,0,,
03411102,03411102,Pio XII-Favia,Pio XII-Favia,41.103250229391804,16.859444304630482,,,0,,,0,,
03417005,03417005,Pasteur-Chieco,Pasteur-Chieco,41.111822183295715,16.853242347900185,,,0,,,0,,
03417007,03417007,Pasteur-M. D'avola,Pasteur-M. D'avola,41.11374508877613,16.85304114817631,,,0,,,0,,
03417105,03417105,Pasteur-Sangiorgi,Pasteur-Sangiorgi,41.113688179622166,16.852689805464124,,,0,,,0,,
03417106,03417106,Pasteur (Coop),Pasteur (Coop),41.111018773624565,16.85293011766438,,,0,,,0,,
03420001,03420001,Pasubio-Petroni,Pasubio-Petroni,41.110435417514964,16.867487243006362,,,0,,,0,,
03420101,03420101,Pasubio-Petroni,Pasubio-Petroni,41.1105175567026,16.86745471482203,,,0,,,0,,
03436003,03436003,Piemonte I,Piemonte I,41.11750413119611,16.793234614181344,,,0,,,0,,
03436102,03436102,Piemonte II,Piemonte II,41.11765774484998,16.793317631631496,,,0,,,0,,
03462001,03462001,Baridomani,Baridomani,41.090137892335676,16.82794215481241,,,0,,,0,,
03471001,03471001,Salandra I,Salandra I,41.11316554923853,16.863481277428004,,,0,,,0,,
03471002,03471002,Salandra II,Salandra II,41.11506891601251,16.86428041927852,,,0,,,0,,
03478104,03478104,S.Girolamo-DonCesare,S.Girolamo-Don Cesare,41.13583023034686,16.823360776322644,,,0,,,0,,
03478105,03478105,S.Girolamo-Puccini,S.Girolamo-Puccini,41.136404778592436,16.819650127290988,,,0,,,0,,
03478106,03478106,Girolamo-Tomasicchio,Girolamo-Tomasicchio,41.13696749816792,16.816242699170022,,,0,,,0,,
03479101,03479101,Sassanelli I,Sassanelli I,41.0996438416558,16.83756729044817,,,0,,,0,,
03479102,03479102,Sassanelli II,Sassanelli II,41.1012817581347,16.835289152244385,,,0,,,0,,
03479103,03479103,Aulisio 17,Aulisio 17,41.10080243190556,16.833968682430072,,,0,,,0,,
03479104,03479104,Aulisio 61,Aulisio 61,41.1021040537483,16.834137638462625,,,0,,,0,,
03484001,03484001,S. l'Africano 284,S. l'Africano 284,41.111670266975274,16.863708170664673,,,0,,,0,,
03484101,03484101,S. l'Africano 207,S. l'Africano 207,41.11175113263137,16.863874922552622,,,0,,,0,,
03507001,03507001,Torre Tresca I,Torre Tresca I,41.09299209331965,16.847075882480123,,,0,,,0,,
03507002,03507002,Torre Tresca II,Torre Tresca II,41.095620072886305,16.847953580049722,,,0,,,0,,
03507003,03507003,Torre Tresca III,Torre Tresca III,41.09799496823409,16.848273653007187,,,0,,,0,,
03507004,03507004,Torre Tresca IV,Torre Tresca IV,41.10125018704869,16.84897564175712,,,0,,,0,,
04022C00,04022C00,Autostrada BA-TA,Autostrada BA-TA,41.068434769952255,16.830222871295547,,,0,,,0,,
04034102,04034102,Compl.Ovest-Bitritto,Compl.Ovest-Bitritto,41.07672632894976,16.831407653015482,,,0,,,0,,
04034C00,04034C00,Parco Adria,Parco Adria,41.07978644484831,16.833263199949393,,,0,,,0,,
04036001,04036001,Bitritto(p.co Adria),Bitritto(p.co Adria),41.07984356317112,16.83430702091619,,,0,,,0,,
04038001,04038001,Compl. Est-Bitritto,Compl. Est-Bitritto,41.076249107782104,16.831822502552473,,,0,,,0,,
04066001,04066001,Canestrelle,Canestrelle,41.08968936697764,16.845464742346994,,,0,,,0,,
04093001,04093001,Cascia 14,Cascia 14,41.06780524453033,16.85592057316523,,,0,,,0,,
04093002,04093002,Cascia-Roccaporena,Cascia-Roccaporena,41.069428026217786,16.855828686319448,,,0,,,0,,
04093101,04093101,Cascia-S.Rita,Cascia-S.Rita,41.06756446944944,16.8558148685173,,,0,,,0,,
04093102,04093102,Cascia-Roccaporena,Cascia-Roccaporena,41.06941509096503,16.855529856490705,,,0,,,0,,
04102001,04102001,Ceglie (cimitero),Ceglie (cimitero),41.05603315718593,16.87009785471891,,,0,,,0,,
04102002,04102002,Ceglie 55,Ceglie 55,41.05423827813747,16.873485466266317,,,0,,,0,,
04102005,04102005,Ceglie 6C,Ceglie 6C,41.05142524287081,16.879097145369105,,,0,,,0,,
04102101,04102101,Ceglie (AMIU),Ceglie (AMIU),41.05424344991304,16.873792080689437,,,0,,,0,,
04102C00,04102C00,Agronomico,Agronomico,41.05171293602636,16.87886435337844,,,0,,,0,,
04104001,04104001,SP70-Vitt. Veneto,SP70-Vitt. Veneto,41.040832361333045,16.863458069333333,,,0,,,0,,
04104101,04104101,SP70-Vitt. Veneto,SP70-Vitt. Veneto,41.040762528006944,16.863172196000086,,,0,,,0,,
04132001,04132001,Crispi-Valenzano,Crispi-Valenzano,41.0413492765501,16.847333751885746,,,0,,,0,,
04132101,04132101,Crispi (scuola),Crispi (scuola),41.041352825674544,16.847498173605302,,,0,,,0,,
04132C00,04132C00,Crispi (Loseto),Crispi (Loseto),41.04249649772946,16.84790122240342,,,0,,,0,,
04157101,04157101,De Curtis-De Filippo,De Curtis-De Filippo,41.076104585114706,16.856332398090323,,,0,,,0,,
04159001,04159001,De Filippo I,De Filippo I,41.07535870892823,16.85464955733731,,,0,,,0,,
04159002,04159002,De Filippo II,De Filippo II,41.07545598609824,16.857227530371567,,,0,,,0,,
04159106,04159106,De Filippo III,De Filippo III,41.07546812920766,16.85461626949445,,,0,,,0,,
04162001,04162001,De Gasperi 368,De Gasperi 368,41.081621029587396,16.869308019810553,,,0,,,0,,
04162002,04162002,De Gasperi 342,De Gasperi 342,41.08373324679766,16.869077419851322,,,0,,,0,,
04162003,04162003,De Gasperi 334,De Gasperi 334,41.08590764249991,16.86902255850323,,,0,,,0,,
04162101,04162101,De Gasperi 449/A,De Gasperi 449/A,41.08995339092758,16.86962517059268,,,0,,,0,,
04162102,04162102,De Gasperi 463,De Gasperi 463,41.08804614401051,16.869224716388185,,,0,,,0,,
04162103,04162103,De Gasperi 479,De Gasperi 479,41.086042418730806,16.86886248792255,,,0,,,0,,
04162104,04162104,De Gasperi 503,De Gasperi 503,41.083944169181045,16.868904341085855,,,0,,,0,,
04162105,04162105,De Gasperi 515,De Gasperi 515,41.08132572005349,16.869131146031414,,,0,,,0,,
04171001,04171001,De Marinis 9,De Marinis 9,41.07469095739467,16.870214642218226,,,0,,,0,,
04171002,04171002,De Marinis - Ponte,De Marinis - Ponte,41.07649143376325,16.870292838084197,,,0,,,0,,
04171003,04171003,De Marinis 153,De Marinis 153,41.079071691451944,16.87022677893061,,,0,,,0,,
04171101,04171101,De Marinis 100,De Marinis 100,41.079150072572844,16.869975240426314,,,0,,,0,,
04171102,04171102,De Marinis - Padova,De Marinis - Padova,41.076931858721565,16.870225369637087,,,0,,,0,,
04209001,04209001,Monastero (scuola),Monastero (scuola),41.06807182050134,16.85963579808861,,,0,,,0,,
04219002,04219002,Di Cillo,Di Cillo,41.07324087266674,16.857193775961616,,,0,,,0,,
04219104,04219104,Di Cillo,Di Cillo,41.07322544707217,16.856999495701793,,,0,,,0,,
04220001,04220001,Di Venere (ospedale),Di Venere (ospedale),41.07724525579578,16.86235992295991,,,0,,,0,,
04232001,04232001,Donadonisi-Quaranta,Donadonisi-Quaranta,41.07671422990638,16.858132971206867,,,0,,,0,,
04232102,04232102,Donadonisi-Quaranta,Donadonisi-Quaranta,41.07684639157506,16.858022154483546,072006,,0,,,0,,
04249C00,04249C00,Madonna delle Grazie,Madonna delle Grazie,41.07770174357551,16.885566103676087,,,0,,,0,,
04253002,04253002,Ferrigni-Lama Duca,Ferrigni-Lama Duca,41.074118792664756,16.85474544450869,,,0,,,0,,
04253101,04253101,Contrada Ferrigni,Contrada Ferrigni,41.07431102916887,16.854908661208935,,,0,,,0,,
04284101,04284101,Gorizia,Gorizia,41.06465083193398,16.873482843755557,,,0,,,0,,
04285001,04285001,Petroni 132H,Petroni 132H,41.08540042162441,16.865312796681597,,,0,,,0,,
04285002,04285002,Petroni (clinica),Petroni (clinica),41.0874777968259,16.865433733996152,,,0,,,0,,
04285101,04285101,Petroni-dalla Chiesa,Petroni-dalla Chiesa,41.08873531770382,16.86548058218003,,,0,,,0,,
04285102,04285102,Petroni 129A,Petroni 129A,41.08585016138234,16.86505264966641,,,0,,,0,,
04285103,04285103,Petroni-Ranieri,Petroni-Ranieri,41.08411910232414,16.86352214457073,,,0,,,0,,
04303001,04303001,Lama Del Duca 12,Lama Del Duca 12,41.071627155892436,16.85555097368648,,,0,,,0,,
04303002,04303002,Lama Del Duca 2,Lama Del Duca 2,41.07374656477543,16.855258715021513,,,0,,,0,,
04303102,04303102,Lama del Duca 21,Lama del Duca 21,41.07149339103929,16.85523727455638,,,0,,,0,,
04320001,04320001,SP45-Minervini,SP45-Minervini,41.04110052596812,16.850936835968636,,,0,,,0,,
04320002,04320002,SP45-Giacobelli,SP45-Giacobelli,41.041081278030596,16.852786362978893,,,0,,,0,,
04320101,04320101,SP45-Giacobelli,SP45-Giacobelli,41.04124548958381,16.852827261788654,,,0,,,0,,
04343101,04343101,Manzari 7,Manzari 7,41.06546817101823,16.874338979852403,,,0,,,0,,
04362001,04362001,Minervini 4,Minervini 4,41.04277096367424,16.85139532812241,,,0,,,0,,
04362101,04362101,Minervini 21,Minervini 21,41.042598152462425,16.85159050446514,,,0,,,0,,
04367001,04367001,Nuzzi-Zaccaria,Nuzzi-Zaccaria,41.04610006906246,16.850861739217034,,,0,,,0,,
04367101,04367101,Nuzzi-Zaccaria,Nuzzi-Zaccaria,41.04613798468353,16.850701485342544,,,0,,,0,,
04367C00,04367C00,Don Nuzzi,Don Nuzzi,41.045422200685884,16.850769302741018,,,0,,,0,,
04426001,04426001,Perrone (Chiesa),Perrone (Chiesa),41.04374296466488,16.850427062754942,,,0,,,0,,
04426101,04426101,Perrone 11,Perrone 11,41.0439418747428,16.850227039784226,,,0,,,0,,
04443101,04443101,Manzari (scuola),Manzari (scuola),41.06677704543416,16.873443473270545,,,0,,,0,,
04443102,04443102,Quaranta 7,Quaranta 7,41.06526913185402,16.872161731756908,,,0,,,0,,
04451001,04451001,Roccaporena-Scoglio,Roccaporena-Scoglio,41.069058237061526,16.858010160734416,,,0,,,0,,
04451101,04451101,Roccaporena-Scoglio,Roccaporena-Scoglio,41.069142837829844,16.85813473558949,,,0,,,0,,
04456001,04456001,Roppo,Roppo,41.067262524651085,16.86939103804512,,,0,,,0,,
04456101,04456101,Umberto I 9,Umberto I 9,41.065422334004595,16.868569901912217,,,0,,,0,,
04462101,04462101,Stadio S. Nicola,Stadio S. Nicola,41.08674997529117,16.84048415138945,,,0,,,0,,
04483001,04483001,S.Angelo-Di Venere,S.Angelo-Di Venere,41.06574490962521,16.865975389612593,,,0,,,0,,
04483101,04483101,S.Angelo-Settembrini,S.Angelo-Settembrini,41.065731926265755,16.865884999658036,,,0,,,0,,
04488101,04488101,S. Rita-Liuzzi,S. Rita-Liuzzi,41.06748996195033,16.86231475739293,,,0,,,0,,
04513001,04513001,Liuzzi (Enel),Liuzzi (Enel),41.0513522238482,16.855488965370174,,,0,,,0,,
04513002,04513002,Liuzzi 111 fronte,Liuzzi 111 fronte,41.05913773035988,16.85959398945616,,,0,,,0,,
04513003,04513003,Liuzzi 62,Liuzzi 62,41.06495907981574,16.861551188805603,,,0,,,0,,
04513004,04513004,Liuzzi-San Gaspare,Liuzzi-San Gaspare,41.06662689376684,16.862650239747857,,,0,,,0,,
04513006,04513006,Liuzzi-Di Cillo,Liuzzi-Di Cillo,41.072761566989406,16.86161405094484,,,0,,,0,,
04513007,04513007,Liuzzi (ospedale),Liuzzi (ospedale),41.07657189017566,16.86144045645601,,,0,,,0,,
04513008,04513008,Liuzzi (CC),Liuzzi (CC),41.081502798457876,16.863838403332544,,,0,,,0,,
04513010,04513010,Liuzzi 18,Liuzzi 18,41.07828599865911,16.862149359208722,,,0,,,0,,
04513101,04513101,Liuzzi-Livatino,Liuzzi-Livatino,41.08089836474618,16.863240979023463,,,0,,,0,,
04513102,04513102,Di Venere fronte,Di Venere fronte,41.07697498729095,16.861375391703252,,,0,,,0,,
04513103,04513103,Liuzzi-Di Cillo,Liuzzi-Di Cillo,41.072814531479096,16.861435891346023,,,0,,,0,,
04513104,04513104,Liuzzi 95,Liuzzi 95,41.066231278163826,16.862308519608547,,,0,,,0,,
04513105,04513105,Liuzzi 111,Liuzzi 111,41.05920100730581,16.859338679162967,,,0,,,0,,
04513106,04513106,Liuzzi (Enel),Liuzzi (Enel),41.05115067180987,16.855151788992394,,,0,,,0,,
04513107,04513107,Liuzzi 71,Liuzzi 71,41.06932967426547,16.86254382787255,,,0,,,0,,
04513109,04513109,Liuzzi 135,Liuzzi 135,41.07868950211728,16.862067467737383,,,0,,,0,,
04513110,04513110,Liuzzi-Chiancone,Liuzzi-Chiancone,41.06107122738017,16.860227352035555,,,0,,,0,,
04525001,04525001,Umberto 77,Umberto 77,41.07349272162911,16.870928823055934,,,0,,,0,,
04525101,04525101,Umberto 16,Umberto 16,41.07441592502381,16.869815975527146,,,0,,,0,,
04525102,04525102,Umberto 64,Umberto 64,41.073395980984564,16.870459715811972,,,0,,,0,,
04528001,04528001,Umberto I 282,Umberto I 282,41.057228683204606,16.870058041786688,,,0,,,0,,
04528002,04528002,Umberto I 266D,Umberto I 266D,41.05894941831926,16.869796912955522,,,0,,,0,,
04528003,04528003,Umberto I 250A,Umberto I 250A,41.060431296720125,16.869509878686287,,,0,,,0,,
04528004,04528004,Umberto I 184,Umberto I 184,41.062209569375845,16.86918516263103,,,0,,,0,,
04528005,04528005,Umberto I 88-90,Umberto I 88-90,41.06429232154192,16.86885551968868,,,0,,,0,,
04528101,04528101,Umberto I 75-77,Umberto I 75-77,41.0642461517543,16.868750599194843,,,0,,,0,,
04528102,04528102,Umberto I 183,Umberto I 183,41.06239106213983,16.86905161814384,,,0,,,0,,
04528103,04528103,Umberto I 261,Umberto I 261,41.0605558540227,16.869361279209954,,,0,,,0,,
04528104,04528104,UmbertoI 264B fronte,UmbertoI 264B fronte,41.05925752285147,16.86953259422955,,,0,,,0,,
04528105,04528105,UmbertoI 276 fronte,UmbertoI 276 fronte,41.05787509183794,16.869753869846342,,,0,,,0,,
04540001,04540001,De Candia (INPS),De Candia (INPS),41.067834229410145,16.865737041065856,,,0,,,0,,
04540002,04540002,Vaccarella 52,Vaccarella 52,41.070987139174505,16.863949061809766,,,0,,,0,,
04540101,04540101,Vaccarella(ospedale),Vaccarella(ospedale),41.07605662610447,16.864591441155927,,,0,,,0,,
04540102,04540102,Vaccarella-Marchite.,Vaccarella-Marchitelli,41.07233420681128,16.863574956742514,,,0,,,0,,
04540103,04540103,De Candia (INPS),De Candia (INPS),41.067685525786295,16.865581720614987,,,0,,,0,,
04550001,04550001,Veneto 80,Veneto 80,41.054436340754165,16.866807821957472,,,0,,,0,,
04550002,04550002,Veneto 68,Veneto 68,41.056840896051966,16.867506724245843,,,0,,,0,,
04550003,04550003,Veneto (fronte 75),Veneto (fronte 75),41.058510929842335,16.867268126185547,,,0,,,0,,
04550004,04550004,Veneto-Tripoli,Veneto-Tripoli,41.06159656605106,16.866552935608,,,0,,,0,,
04550005,04550005,Veneto 32,Veneto 32,41.06296496835105,16.86625946716676,,,0,,,0,,
04550101,04550101,Veneto 29/C,Veneto 29/C,41.06294013798443,16.86621289340357,,,0,,,0,,
04550102,04550102,Veneto 63,Veneto 63,41.061588952682335,16.866486448201925,,,0,,,0,,
04550103,04550103,Veneto 75,Veneto 75,41.058499821107645,16.867058372991394,,,0,,,0,,
04550104,04550104,Veneto 77,Veneto 77,41.05689907065149,16.86733040301888,,,0,,,0,,
04550105,04550105,Veneto 83,Veneto 83,41.05437729562229,16.866602939040657,,,0,,,0,,
04558001,04558001,Veneto 176,Veneto 176,41.06847408716877,16.87010811337821,,,0,,,0,,
04558002,04558002,Veneto (Ist. Diaz),Veneto (Ist. Diaz),41.071032134897166,16.871665844190325,,,0,,,0,,
04558101,04558101,Veneto 63/B,Veneto 63/B,41.07111610670267,16.871553022580546,,,0,,,0,,
04558102,04558102,Veneto (scuola),Veneto (scuola),41.06814997764642,16.86973166315298,,,0,,,0,,
04559001,04559001,Vittorio Emanuele 15,Vittorio Emanuele 15,41.06428548436462,16.86635630838511,,,0,,,0,,
04559101,04559101,Vittorio Emanuele 41,Vittorio Emanuele 41,41.06415377912145,16.86559827976965,,,0,,,0,,
04562101,04562101,Zaccaria,Zaccaria,41.045925832833575,16.85274006495327,,,0,,,0,,
05018001,05018001,Appulo-La Pira,Appulo-La Pira,41.102502472099886,16.899393359911773,,,0,,,0,,
05018002,05018002,Appulo-Archimede,Appulo-Archimede,41.10404710978654,16.900521478159614,,,0,,,0,,
05018101,05018101,Appulo-Archimede,Appulo-Archimede,41.104464443922225,16.900490126091697,,,0,,,0,,
05018102,05018102,Appulo-La Pira,Appulo-La Pira,41.10284099672634,16.899354895030577,,,0,,,0,,
05021001,05021001,Archimede-Caldarola,Archimede-Caldarola,41.105521655831836,16.89928183606371,,,0,,,0,,
05021002,05021002,Archimede-Appulo,Archimede-Appulo,41.104568937250235,16.9008884707078,,,0,,,0,,
05021003,05021003,Archimede 19,Archimede 19,41.1038275942799,16.902839239740334,,,0,,,0,,
05021004,05021004,Archimede 43,Archimede 43,41.10317038126904,16.904491674061568,,,0,,,0,,
05021005,05021005,Archimede/Palaflorio,Archimede(Palaflorio),41.101994994918705,16.90768299972424,,,0,,,0,,
05021101,05021101,Palaflorio fronte,Palaflorio fronte,41.10236920257066,16.906981317796394,,,0,,,0,,
05021102,05021102,Archimede 10,Archimede 10,41.103221946852564,16.90469447064952,,,0,,,0,,
05021103,05021103,Archimede 21,Archimede 21,41.10351762701382,16.903138953291975,,,0,,,0,,
05021104,05021104,Archimede 8,Archimede 8,41.10374921326801,16.903346273561084,,,0,,,0,,
05021105,05021105,Archimede-Appulo,Archimede-Appulo,41.10471810924974,16.90082617557522,,,0,,,0,,
05021106,05021106,Archimede-Caldarola,Archimede-Caldarola,41.10548259880185,16.899470782552093,,,0,,,0,,
05027001,05027001,Bari 26,Bari 26,41.086247617246144,16.99204279944002,,,0,,,0,,
05027002,05027002,Bari 16,Bari 16,41.08579879022538,16.994860928138262,,,0,,,0,,
05027004,05027004,Bari 2,Bari 2,41.08526724469758,16.998395721083934,,,0,,,0,,
05027101,05027101,Bari-Tripoli,Bari-Tripoli,41.0853856520562,16.998529135939517,,,0,,,0,,
05027102,05027102,Bari 27,Bari 27,41.085637650390915,16.996804053978384,,,0,,,0,,
05027103,05027103,Bari (scuola),Bari (scuola),41.085920822208145,16.995079937080686,,,0,,,0,,
05027104,05027104,Bari 35F,Bari 35F,41.08641802737816,16.992125382856067,,,0,,,0,,
05060001,05060001,Mercato coperto,Mercato coperto,41.10822113665325,16.895973308066573,,,0,,,0,,
05060002,05060002,Partigiani-Peucetia,Partigiani-Peucetia,41.106894402039934,16.898947556827185,,,0,,,0,,
05060003,05060003,Partigiani-Salapia,Partigiani-Salapia,41.10879832522154,16.89462116459517,,,0,,,0,,
05060101,05060101,Assi Casa,Assi Casa,41.10719000786349,16.898835412546877,,,0,,,0,,
05060102,05060102,Partigiani-Protospa.,Partigiani-Protospata,41.10847831187856,16.89579935723046,,,0,,,0,,
05060103,05060103,Partigiani-Salapia,Partigiani-Salapia,41.10894328470876,16.89467933261461,,,0,,,0,,
05063003,05063003,Caldarola 41C,Caldarola 41C,41.106502830928505,16.898202942931217,,,0,,,0,,
05063007,05063007,Caldarola (chiesa),Caldarola (chiesa),41.10876937370308,16.892998237082313,,,0,,,0,,
05063008,05063008,Giardino Arena,Giardino Arena,41.10747462306402,16.896090767624905,,,0,,,0,,
05063101,05063101,C.S. Polivalente (C),C.S. Polivalente (C),41.10231886412983,16.910080707676663,,,0,,,0,,
05063102,05063102,Caldarola-Peucetia,Caldarola-Peucetia,41.10668370280332,16.89883314949994,,,0,,,0,,
05063105,05063105,Caldarola (chiesa),Caldarola (chiesa),41.108966074804506,16.893205788909476,,,0,,,0,,
05063108,05063108,Mercato coperto,Mercato coperto,41.10763554617819,16.89647110647895,,,0,,,0,,
05063C00,05063C00,C.S. Polivalente (A),C.S. Polivalente (A),41.1022863599745,16.910204211682405,,,0,,,0,,
05063C01,05063C01,C.S. Polivalente (B),C.S. Polivalente (B),41.10184277858129,16.910289340667507,,,0,,,0,,
05078001,05078001,Carabellese-Papalia,Carabellese-Papalia,41.105563430283226,16.90595174625845,,,0,,,0,,
05078002,05078002,Carabellese 10,Carabellese 10,41.10711400282467,16.906975206860697,,,0,,,0,,
05078003,05078003,Carabellese-de Lig.,Carabellese - de Liguori,41.108068236779744,16.90768115044721,,,0,,,0,,
05078101,05078101,Carabellese-de Lig.,Carabellese-de Liguori,41.1083874341595,16.907568821833625,,,0,,,0,,
05078102,05078102,Eurospin,Eurospin,41.107313936496695,16.90683593697697,,,0,,,0,,
05078103,05078103,Carabellese-Papalia,Carabellese-Papalia,41.10609147731952,16.9061059631443,,,0,,,0,,
05097001,05097001,Cavalieri V.Veneto I,Cavalieri V.Veneto I,41.10813473439383,16.89574726865132,,,0,,,0,,
05097101,05097101,Cavalieri V.VenetoII,Cavalieri V.Veneto II,41.10819264085909,16.89557435687807,,,0,,,0,,
05105001,05105001,Colella-De Liguori,Colella-De Liguori,41.1083159082132,16.909530294643936,,,0,,,0,,
05105101,05105101,Colella-Gentile,Colella-Gentile,41.1084784240824,16.909136962002673,,,0,,,0,,
05111001,05111001,Colonna 16,Colonna 16,41.08799420571796,16.98953188204324,,,0,,,0,,
05111101,05111101,Colonna-Rosa Azzurra,Colonna-Rosa Azzurra,41.088028774461975,16.98972609494068,,,0,,,0,,
05114101,05114101,Complanare Est 132,Complanare Est 132,41.095223174087415,16.94526673914558,,,0,,,0,,
05114102,05114102,Compl. Est Telecom,Compl. Est Telecom,41.097590719059596,16.939199132873505,,,0,,,0,,
05114103,05114103,Complanare Ovest 101,Complanare Ovest 101,41.09650440204484,16.940005671381464,,,0,,,0,,
05114104,05114104,Complanare Est 108,Complanare Est 108,41.09905609024788,16.935062838938183,,,0,,,0,,
05114105,05114105,Complanare Est 92,Complanare Est 92,41.081482137715255,17.024019603954166,,,0,,,0,,
05114106,05114106,Complanare Est 44-46,Complanare Est 44-46,41.08192993704677,17.02097911926863,,,0,,,0,,
05114107,05114107,Complanare Est 30,Complanare Est 30,41.082772732763104,17.015201653539187,,,0,,,0,,
05114108,05114108,Oasi Francescana,Oasi Francescana,41.10161840445816,16.928265615099054,,,0,,,0,,
05117001,05117001,Complanare Ovest I,Complanare Ovest I,41.09930161317874,16.9330819062311,,,0,,,0,,
05117002,05117002,Complanare Majesty,Complanare Majesty,41.0980289314923,16.93651613496901,,,0,,,0,,
05117003,05117003,Complanare Ovest III,Complanare Ovest III,41.094162549290544,16.946774507006765,,,0,,,0,,
05117004,05117004,Complanare Ovest V,Complanare Ovest V,41.08246886946144,17.00818238998733,,,0,,,0,,
05117005,05117005,Borgo San Lorenzo,Borgo San Lorenzo,41.08229623617012,17.015745268672738,,,0,,,0,,
05117006,05117006,complanare Ovest 92,complanare Ovest 92,41.08137683978901,17.022028847738323,,,0,,,0,,
05117007,05117007,Complanare Ovest 123,Complanare Ovest 123,41.08002268093142,17.02696807367981,,,0,,,0,,
05118C00,05118C00,Conenna Cap.,Conenna Cap.,41.10169965702792,16.936566643026893,,,0,,,0,,
05121101,05121101,Coppa di Bari,Coppa di Bari,41.08220305441541,17.004423090572683,,,0,,,0,,
05144001,05144001,D'Avanzo I,D'Avanzo I,41.1046266679007,16.906928041049355,,,0,,,0,,
05144002,05144002,D'Avanzo III,D'Avanzo III,41.10378194194778,16.908992956288753,,,0,,,0,,
05144101,05144101,D'Avanzo II,D'Avanzo II,41.10387935356311,16.90921655618899,,,0,,,0,,
05144102,05144102,D'Avanzo IV,D'Avanzo IV,41.104638775661755,16.907222015651186,,,0,,,0,,
05216001,05216001,strada Marina XIV,strada Marina XIV,41.09623293784731,16.966429657504477,,,0,,,0,,
05216002,05216002,strada Marina XII,strada Marina XII,41.09593863502109,16.96932540312978,,,0,,,0,,
05216003,05216003,strada Marina X,strada Marina X,41.09531169071712,16.97278926798964,,,0,,,0,,
05216004,05216004,strada Marina VIII,strada Marina VIII,41.094824975428445,16.976637662587244,,,0,,,0,,
05216005,05216005,strada Marina VI,strada Marina VI,41.093974892581485,16.979098692509247,,,0,,,0,,
05216006,05216006,strada Marina IV,strada Marina IV,41.09383623791977,16.98384312943544,,,0,,,0,,
05216008,05216008,strada Marina II,strada Marina II,41.09263129013261,16.98596061646782,,,0,,,0,,
05216101,05216101,strada Marina III,strada Marina III,41.09408220346157,16.98336741249772,,,0,,,0,,
05216102,05216102,strada Marina V,strada Marina V,41.09417914158019,16.978962918744717,,,0,,,0,,
05216103,05216103,strada Marina VII,strada Marina VII,41.09493312345275,16.97673180485356,,,0,,,0,,
05216104,05216104,strada Marina IX,strada Marina IX,41.09562260543773,16.97248241128984,,,0,,,0,,
05216105,05216105,strada Marina XI,strada Marina XI,41.096079574160335,16.969913369736513,,,0,,,0,,
05216106,05216106,strada Marina XIII,strada Marina XIII,41.096233930176396,16.966786209469372,,,0,,,0,,
05221001,05221001,Torre Quetta II,Torre Quetta II,41.11323424413998,16.911503557546027,,,0,,,0,,
05221002,05221002,Lung. Abbrescia VI,Lung. Abbrescia VI,41.111315627491976,16.9189941535279,,,0,,,0,,
05221003,05221003,Lung. Abbrescia IV,Lung. Abbrescia IV,41.11119170656466,16.924404172630727,,,0,,,0,,
05221004,05221004,Lung. Abbrescia II,Lung. Abbrescia II,41.10914723060035,16.931176529450745,,,0,,,0,,
05221101,05221101,Lung. Abbrescia I,Lung. Abbrescia I,41.10923878573823,16.93130659366435,,,0,,,0,,
05221102,05221102,Lung. Abbrescia III,Lung. Abbrescia III,41.111320612529745,16.92416401283392,,,0,,,0,,
05221103,05221103,Lung. Abbrescia V,Lung. Abbrescia V,41.11151420527207,16.917958007011716,,,0,,,0,,
05221104,05221104,Torre Quetta I,Torre Quetta I,41.11305138534813,16.912471229920133,,,0,,,0,,
05243001,05243001,Abate Eustasio II,Abate Eustasio II,41.09529513797253,16.955706827851834,,,0,,,0,,
05243101,05243101,Abate Eustasio I,Abate Eustasio I,41.095446611004476,16.955618057078045,,,0,,,0,,
05252001,05252001,Fenicia slargo,Fenicia slargo,41.081666948119675,17.00031694446608,,,0,,,0,,
05252002,05252002,Fenicia-Bari,Fenicia-Bari,41.084218995843955,17.000448769845622,,,0,,,0,,
05252101,05252101,Fenicia-Morelli,Fenicia-Morelli,41.08394371135566,17.00190526624116,,,0,,,0,,
05252C00,05252C00,Fenicia cap.,Fenicia cap.,41.08332786710236,17.001667418746703,,,0,,,0,,
05258002,05258002,Fontana Nuova,Fontana Nuova,41.08469806170234,17.00550678023561,,,0,,,0,,
05273001,05273001,Gentile (Sacrario),Gentile (Sacrario),41.1104715973283,16.904890313484216,,,0,,,0,,
05273002,05273002,Gentile-Colella,Gentile-Colella,41.10916794124011,16.908366026460545,,,0,,,0,,
05273003,05273003,Gentile-Loiacono,Gentile-Loiacono,41.10810690940623,16.91113714696486,,,0,,,0,,
05273004,05273004,Reg. Puglia fronte,Reg. Puglia fronte,41.10715394535458,16.91359956364864,,,0,,,0,,
05273005,05273005,Gentile-de Felice,Gentile-de Felice,41.105634716964374,16.917453154961237,,,0,,,0,,
05273006,05273006,Gentile-Quintavalle,Gentile-Quintavalle,41.10428290614773,16.92078501273812,,,0,,,0,,
05273101,05273101,Gentile (Bellavista),Gentile (Bellavista),41.103133429292384,16.92424730954267,,,0,,,0,,
05273102,05273102,Gentile-Cannone,Gentile-Cannone,41.104370397538936,16.92101744009201,,,0,,,0,,
05273103,05273103,Gentile-Quasimodo,Gentile-Quasimodo,41.10600005066808,16.916823132980173,,,0,,,0,,
05273105,05273105,Gentile-Colella,Gentile-Colella,41.10804051946602,16.91159199953321,,,0,,,0,,
05273106,05273106,Gentile-T. Diavolo,Gentile-T. Diavolo,41.109399152683736,16.908053235410485,,,0,,,0,,
05273107,05273107,Gentile (Sacrario),Gentile (Sacrario),41.110655339844044,16.90479756843546,,,0,,,0,,
05273109,05273109,Regione Puglia,Regione Puglia,41.10718643838872,16.91374708145532,,,0,,,0,,
05282001,05282001,Lung. Giovine II,Lung. Giovine II,41.107221147431595,16.934399599995928,,,0,,,0,,
05282002,05282002,Lung. Giovine IV,Lung. Giovine IV,41.10519259946846,16.93856324874254,,,0,,,0,,
05282003,05282003,Lung. Giovine VI,Lung. Giovine VI,41.10415774475039,16.942099908641783,,,0,,,0,,
05282004,05282004,Lung. Giovine VIII,Lung. Giovine VIII,41.10219426372242,16.946586028598574,,,0,,,0,,
05282005,05282005,Lung. Giovine X,Lung. Giovine X,41.100816759828575,16.949931361069076,,,0,,,0,,
05282006,05282006,Lung. Giovine XII,Lung. Giovine XII,41.09752083834078,16.95605752432064,,,0,,,0,,
05282101,05282101,Lung. Giovine I,Lung. Giovine I,41.09741440363985,16.956260062480155,,,0,,,0,,
05282102,05282102,Lung. Giovine III,Lung. Giovine III,41.10088874866611,16.950100037958254,,,0,,,0,,
05282103,05282103,Lung. Giovine V,Lung. Giovine V,41.102459171620524,16.946483947086126,,,0,,,0,,
05282104,05282104,Lung. Giovine VII,Lung. Giovine VII,41.10417615710628,16.942342884351223,,,0,,,0,,
05282105,05282105,Lung. Giovine IX,Lung. Giovine IX,41.1052823547025,16.938624649846037,,,0,,,0,,
05282106,05282106,Lido Trullo,Lido Trullo,41.10707686301092,16.935065469215147,,,0,,,0,,
05297001,05297001,Japigia 131,Japigia 131,41.11380430766117,16.896315758961702,,,0,,,0,,
05297002,05297002,Ordine Ing. fronte,Ordine Ing. fronte,41.11269532313815,16.89924992742648,,,0,,,0,,
05297003,05297003,Japigia (Suzuki),Japigia (Suzuki),41.11185610404135,16.901341968050723,,,0,,,0,,
05297101,05297101,Japigia 230,Japigia 230,41.11222196109311,16.900980589173585,,,0,,,0,,
05297102,05297102,Ordine Ingegneri,Ordine Ingegneri,41.11281579327014,16.899293495060316,,,0,,,0,,
05297103,05297103,Japigia-Accolti Gil,Japigia-Accolti Gil,41.1141718575823,16.895828756714227,,,0,,,0,,
05297104,05297104,Japigia-Caduti,Japigia-Caduti,41.11471064319289,16.894363029353986,,,0,,,0,,
05300001,05300001,La Pira I,La Pira I,41.10065791123587,16.90064402475517,,,0,,,0,,
05300101,05300101,La Pira II,La Pira II,41.1006603198449,16.9011867345968,,,0,,,0,,
05305001,05305001,Lama di Giotta,Lama di Giotta,41.08758647667354,17.002317215758872,,,0,,,0,,
05318001,05318001,Loiacono-Pascazio,Loiacono-Pascazio,41.105330977610066,16.910792872889967,,,0,,,0,,
05318002,05318002,Loiacono-Aquilino,Loiacono-Aquilino,41.10714017101445,16.91220771165795,,,0,,,0,,
05318003,05318003,Loiacono-Caldarola,Loiacono-Caldarola,41.10335392749145,16.90931463302949,,,0,,,0,,
05318101,05318101,Loiacono-Aquilino,Loiacono-Aquilino,41.107298600004064,16.91219888616634,,,0,,,0,,
05318102,05318102,Loiacono-Pascazio,Loiacono-Pascazio,41.10537283272991,16.91049011403023,,,0,,,0,,
05318104,05318104,Loiacono-D'Avanzo,Loiacono-D'Avanzo,41.1033594713034,16.909225401174634,,,0,,,0,,
05336001,05336001,Interesse I,Interesse I,41.09346774222512,16.958958043838717,,,0,,,0,,
05336101,05336101,Interesse II,Interesse II,41.093620018854935,16.95913673064595,,,0,,,0,,
05342001,05342001,M.Grecia-Caldarola,M.Grecia-Caldarola,41.11082035052272,16.891218466544093,,,0,,,0,,
05342002,05342002,M.Grecia-Japigia,M.Grecia-Japigia,41.114148495886404,16.893466293646533,,,0,,,0,,
05342102,05342102,M. Grecia-Caldarola,M. Grecia-Caldarola,41.11102695800188,16.89099073725586,,,0,,,0,,
05349101,05349101,Masaniello-Oberdan,Masaniello-Oberdan,41.116792685689354,16.886310370538094,,,0,,,0,,
05368001,05368001,M. Silvati-Fenicia,M. Silvati-Fenicia,41.08472337866517,17.001667420757567,,,0,,,0,,
05368101,05368101,M. Silvati-Resta,M. Silvati-Resta,41.084495107998116,17.004164950241194,,,0,,,0,,
05399002,05399002,Oberdan-Caldarola,Oberdan-Caldarola,41.11758499103887,16.88164967600487,,,0,,,0,,
05399003,05399003,Oberdan-Bersaglieri,Oberdan-Bersaglieri,41.1174602166529,16.88448747137929,,,0,,,0,,
05399101,05399101,Bari Marconi FS,Bari Marconi FS,41.11695870538956,16.888067719653353,,,0,,,0,,
05399102,05399102,Oberdan-Schiralli,Oberdan-Schiralli,41.11760674073347,16.883980384170233,,,0,,,0,,
05399103,05399103,Oberdan FSE,Oberdan FSE,41.11773811637278,16.881050550768663,,,0,,,0,,
05410001,05410001,Palasciano I,Palasciano I,41.105376163401594,16.921534549157943,,,0,,,0,,
05410101,05410101,Palasciano II,Palasciano II,41.10550099936356,16.921627690029162,,,0,,,0,,
05414001,05414001,Papalia-Marzabotto,Papalia-Marzabotto,41.10734763066986,16.90192920413834,,,0,,,0,,
05414002,05414002,Papalia (ASL),Papalia (ASL),41.10656957769394,16.90394249794622,,,0,,,0,,
05414004,05414004,Papalia-Marzabotto,Papalia-Marzabotto,41.10734192622021,16.901953204800584,,,0,,,0,,
05414005,05414005,Papalia (ASL),Papalia (ASL),41.10655793373381,16.90396830854102,,,0,,,0,,
05414101,05414101,Papalia (ASL),Papalia (ASL),41.106577275852025,16.904213907968124,,,0,,,0,,
05414103,05414103,Papalia (ASL),Papalia (ASL),41.10658210094761,16.90418611710516,,,0,,,0,,
05432002,05432002,Peucetia (chiesa),Peucetia (chiesa),41.114104057293304,16.889711261647182,,,0,,,0,,
05432003,05432003,Peucetia-M.Grecia,Peucetia-M.Grecia,41.11327371444055,16.89174362005317,,,0,,,0,,
05432004,05432004,Peucetia-Daunia,Peucetia-Daunia,41.11251670623356,16.8933456495239,,,0,,,0,,
05432005,05432005,Peucetia-Salapia,Peucetia-Salapia,41.11136209336349,16.895995935960592,,,0,,,0,,
05432006,05432006,Peucetia A6,Peucetia A6,41.109803561506155,16.89833860259677,,,0,,,0,,
05432101,05432101,Peucetia A6 fronte,Peucetia A6 fronte,41.11003620021856,16.898715946268833,,,0,,,0,,
05432102,05432102,Peucetia (poste),Peucetia (poste),41.111988649562406,16.89584877887161,,,0,,,0,,
05432103,05432103,Peucetia-M.Grecia,Peucetia-M.Grecia,41.11277711161249,16.893727168849267,,,0,,,0,,
05432104,05432104,Peucetia-Archita,Peucetia-Archita,41.11360033656091,16.891626197237382,,,0,,,0,,
05432105,05432105,Peucetia-Pitagora,Peucetia-Pitagora,41.1142527348986,16.890006662789364,,,0,,,0,,
05432106,05432106,Peucetia-Apulia,Peucetia-Apulia,41.115086556045426,16.887899538182086,,,0,,,0,,
05440001,05440001,Quasimodo-Alpini,Quasimodo-Alpini,41.105455991054086,16.919064537456162,,,0,,,0,,
05440002,05440002,Quasimodo (chiesa),Quasimodo (chiesa),41.10635205220227,16.9209489778299,,,0,,,0,,
05440101,05440101,Quasimodo-Alpini,Quasimodo-Alpini,41.10539596961261,16.918811708541416,,,0,,,0,,
05442C00,05442C00,Prezzolini (scuola),Prezzolini (scuola),41.10087768150549,16.907638043786857,,,0,,,0,,
05449001,05449001,Resta,Resta,41.08634395503573,17.00344799073196,,,0,,,0,,
05450001,05450001,Rocca (Ecopoli),Rocca (Ecopoli),41.09996398918698,16.903810756630396,,,0,,,0,,
05450002,05450002,Rocca-Archimede,Rocca-Archimede,41.10217879343835,16.90528395912983,,,0,,,0,,
05450101,05450101,Rocca-Archimede,Rocca-Archimede,41.10253786164236,16.90520655098183,,,0,,,0,,
05450102,05450102,Rocca-La Pira,Rocca-La Pira,41.10023154697218,16.903789462664907,,,0,,,0,,
05474003,05474003,Salapia-Siponto,Salapia-Siponto,41.11040963380075,16.89509622546764,,,0,,,0,,
05474101,05474101,Salapia-Peucetia,Salapia-Peucetia,41.111276587755896,16.8954202207354,,,0,,,0,,
05477001,05477001,S.Giorgio-Marina,S.Giorgio-Marina,41.09470052354769,16.961978529336594,,,0,,,0,,
05477102,05477102,S.Giorgio-Bari,S.Giorgio-Bari,41.09327224868986,16.961546365740958,,,0,,,0,,
05482001,05482001,f.lli Prayer-Gentile,f.lli Prayer-Gentile,41.10006913736802,16.93792867520573,,,0,,,0,,
05482101,05482101,f.lli Prayer-Gentile,f.lli Prayer-Gentile,41.099522549840536,16.93718223779097,,,0,,,0,,
05489002,05489002,Scizze (Atlantide),Scizze (Atlantide),41.09036229490216,16.987885116277752,,,0,,,0,,
05489101,05489101,Scizze (Atlantide),Scizze (Atlantide),41.090025275873735,16.988104034752045,,,0,,,0,,
05489102,05489102,strada Marina I,strada Marina I,41.09286181531251,16.98588483064505,,,0,,,0,,
05500001,05500001,Suglia-Toscanini,Suglia-Toscanini,41.10358870787226,16.91282116065028,,,0,,,0,,
05500002,05500002,Suglia (parco),Suglia (parco),41.1029263768614,16.916280259835776,,,0,,,0,,
05500003,05500003,Suglia-Toscanini,Suglia-Toscanini,41.10354342733449,16.912963821612152,,,0,,,0,,
05500004,05500004,Suglia (parco),Suglia (parco),41.10300435330601,16.91631732630074,,,0,,,0,,
05500101,05500101,Suglia-Toscanini,Suglia-Toscanini,41.10362702455255,16.913337516795373,,,0,,,0,,
05500102,05500102,Suglia-Toscanini,Suglia-Toscanini,41.10368315144285,16.913097146166788,,,0,,,0,,
05508001,05508001,Peucetia (torrente),Peucetia (torrente),41.1081029363252,16.900369786117157,,,0,,,0,,
05508101,05508101,Peucetia (torrente),Peucetia (torrente),41.10822667639311,16.900231575508478,,,0,,,0,,
05510001,05510001,Toscanini-Caldarola,Toscanini-Caldarola,41.1028191881066,16.911624490875766,,,0,,,0,,
05510002,05510002,Toscanini-Suglia,Toscanini-Suglia,41.103982231372505,16.912402728723418,,,0,,,0,,
05510003,05510003,Toscanini-Gentile,Toscanini-Gentile,41.10638636229132,16.91405282702407,,,0,,,0,,
05510101,05510101,Toscanini-Gentile,Toscanini-Gentile,41.106133808383404,16.913667143159653,,,0,,,0,,
05510102,05510102,Toscanini-Suglia,Toscanini-Suglia,41.104612835811224,16.91260130886482,,,0,,,0,,
05510103,05510103,Tosca. ang.Caldarola,Tosca. ang.Caldarola,41.102737540856936,16.911393853980424,,,0,,,0,,
05547101,05547101,Vitale,Vitale,41.10239153105595,16.938288147920346,,,0,,,0,,
05563001,05563001,Trulli I,Trulli I,41.087738541872945,17.004161779961134,,,0,,,0,,
05563002,05563002,Trulli II,Trulli II,41.086681890031834,17.005346729140697,,,0,,,0,,
06006001,06006001,Alberotanza,Alberotanza,41.095665960914765,16.871676071291176,,,0,,,0,,
06009002,06009002,Amendola-SS100,Amendola-SS100,41.09530894930052,16.891223201261248,,,0,,,0,,
06009003,06009003,Amendola (Ospedale),Amendola (Ospedale),41.098778810889534,16.889537846934424,,,0,,,0,,
06009004,06009004,Executive Center,Executive Center,41.101246461496615,16.888352536680756,,,0,,,0,,
06009005,06009005,Caserma Magrone,Caserma Magrone,41.10403294956935,16.887025441054263,,,0,,,0,,
06009006,06009006,Amendola-cavalcavia,Amendola-cavalcavia,41.10595731791349,16.88612547256153,,,0,,,0,,
06009007,06009007,Amendola-Omodeo,Amendola-Omodeo,41.10792055235517,16.885153887213004,,,0,,,0,,
06009008,06009008,Amendola (Campus),Amendola (Campus),41.11043138907514,16.88369285884964,,,0,,,0,,
06009009,06009009,Amendola-C.Ulpiani,Amendola-C.Ulpiani,41.11251222545649,16.882059879876042,,,0,,,0,,
06009010,06009010,Amendola-Cirillo,Amendola-Cirillo,41.11484650992469,16.88023155981812,,,0,,,0,,
06009101,06009101,Amendola-C.Ulpiani,Amendola-C.Ulpiani,41.112360806447235,16.88199285783477,,,0,,,0,,
06009102,06009102,Amendola (Campus),Amendola (Campus),41.11008668833111,16.883802218943,,,0,,,0,,
06009103,06009103,Amendola-Omodeo,Amendola-Omodeo,41.10768802994961,16.88512777701728,,,0,,,0,,
06009104,06009104,Amendola-Petrera,Amendola-Petrera,41.105889872076155,16.88596035590249,,,0,,,0,,
06009105,06009105,Amendola-Einaudi,Amendola-Einaudi,41.10402414629192,16.886860720032008,,,0,,,0,,
06009106,06009106,Agenzia Entrate,Agenzia Entrate,41.101480719106505,16.888065714225654,,,0,,,0,,
06009107,06009107,Ospedale Pediatrico,Ospedale Pediatrico,41.09867066539156,16.88940495848113,,,0,,,0,,
06009108,06009108,Amendola-SS100,Amendola-SS100,41.095676966777056,16.89078378873862,,,0,,,0,,
06010001,06010001,Caduti Lavoro I,Caduti Lavoro I,41.08704132109803,16.89565760334431,,,0,,,0,,
06010101,06010101,Caduti Lavoro II,Caduti Lavoro II,41.087707839617224,16.89484527635696,,,0,,,0,,
06045001,06045001,Conte Giusso-Fanelli,Conte Giusso-Fanelli,41.0937319619788,16.884454804791027,,,0,,,0,,
06045002,06045002,Conte Giusso-Bovio,Conte Giusso-Bovio,41.09380763740822,16.88657611575278,,,0,,,0,,
06045003,06045003,Conte Giusso-Tupputi,Conte Giusso-Tupputi,41.093780529289354,16.88978671899213,,,0,,,0,,
06045101,06045101,Conte Giusso-Tupputi,Conte Giusso-Tupputi,41.09393758260478,16.88949098997015,,,0,,,0,,
06045102,06045102,Conte Giusso-Bovio,Conte Giusso-Bovio,41.09387255323138,16.88604022601624,,,0,,,0,,
06045103,06045103,Conte Giusso-Tupputi,Conte Giusso-Fanelli,41.09383259001535,16.884266425400675,,,0,,,0,,
06061001,06061001,Caduti Lavoro III,Caduti Lavoro III,41.08925703168409,16.897417758723037,,,0,,,0,,
06061002,06061002,Caduti Lavoro V,Caduti Lavoro V,41.089966790181684,16.899437301075142,,,0,,,0,,
06061101,06061101,Caduti Lavoro IV,Caduti Lavoro IV,41.09005501867337,16.89940482543977,,,0,,,0,,
06061102,06061102,Caduti Lavoro VI,Caduti Lavoro VI,41.08927364707663,16.89715465406535,,,0,,,0,,
06138102,06138102,B. Croce - Ciaia,B. Croce - Ciaia,41.11482271475376,16.872282243289888,,,0,,,0,,
06138103,06138103,B. Croce - Bottalico,B. Croce - Bottalico,41.11241635290873,16.872116489604704,,,0,,,0,,
06138104,06138104,B. Croce-Monfalcone,B. Croce-Monfalcone,41.11076464434035,16.871999168654607,,,0,,,0,,
06138105,06138105,Chiesa Russa,Chiesa Russa,41.109479784921696,16.87189904743744,,,0,,,0,,
06138106,06138106,B. Croce - Sabotino,B. Croce - Sabotino,41.107778714178764,16.871718237116948,,,0,,,0,,
06162001,06162001,De Gasperi 326/b,De Gasperi 326/b,41.087671351495814,16.869421624563156,,,0,,,0,,
06162002,06162002,De Gasperi 320/B,De Gasperi 320/B,41.089962399334524,16.86987905194294,,,0,,,0,,
06162003,06162003,De Gasperi (scuola),De Gasperi (scuola),41.091714220152554,16.870205282786607,,,0,,,0,,
06162004,06162004,De Gasperi 312,De Gasperi 312,41.093943309545686,16.870602936328254,,,0,,,0,,
06162005,06162005,De Gasperi-La Sorsa,De Gasperi-La Sorsa,41.09635726262785,16.870973867594802,,,0,,,0,,
06162006,06162006,De Gasperi 296,De Gasperi 296,41.09776539952155,16.871134892699953,,,0,,,0,,
06162007,06162007,De Gasperi 278,De Gasperi 278,41.099992790383986,16.871492907413927,,,0,,,0,,
06162008,06162008,De Gasperi 274,De Gasperi 274,41.10204296339244,16.871637244506918,,,0,,,0,,
06162009,06162009,De Gasperi 270,De Gasperi 270,41.103657285364235,16.87170775944056,,,0,,,0,,
06162010,06162010,De Gasperi 248,De Gasperi 248,41.10544715447274,16.87174827043575,,,0,,,0,,
06162101,06162101,De Gasperi (Carcere),De Gasperi (Carcere),41.10599208651938,16.871614744875767,,,0,,,0,,
06162102,06162102,De Gasperi 345,De Gasperi 345,41.104145804174706,16.87150181680666,,,0,,,0,,
06162103,06162103,De Gasperi - Morea,De Gasperi - Morea,41.102151120762656,16.87147231280462,,,0,,,0,,
06162104,06162104,De Gasperi - Lonigro,De Gasperi - Lonigro,41.10008654388254,16.87129383887634,,,0,,,0,,
06162105,06162105,De Gasperi - C.Rotto,De Gasperi - C.Rotto,41.09813018998628,16.871001229577736,,,0,,,0,,
06162106,06162106,De Gasperi-La Sorsa,De Gasperi-La Sorsa,41.09665084182483,16.870746288267714,,,0,,,0,,
06162107,06162107,De Gasperi 421,De Gasperi 421,41.09503774950465,16.87052991408852,,,0,,,0,,
06162108,06162108,De Gasperi 429/A,De Gasperi 429/A,41.0925537809463,16.87009933810967,,,0,,,0,,
06186001,06186001,Dei Mille I,Dei Mille I,41.11551712023151,16.877519083611503,,,0,,,0,,
06186002,06186002,Dei Mille II,Dei Mille II,41.11695338443206,16.87632305032237,,,0,,,0,,
06186003,06186003,Dei Mille III,Dei Mille III,41.11417139610107,16.878577497917703,,,0,,,0,,
06193101,06193101,Costituente (park),Costituente (park),41.104268650177275,16.873525608431926,,,0,,,0,,
06195002,06195002,Resistenza (parco),Resistenza (parco),41.10226348992928,16.87603178471431,,,0,,,0,,
06195003,06195003,Resistenza (park),Resistenza (park),41.105884289484415,16.875119406388173,,,0,,,0,,
06195C01,06195C01,P&R 2 GIUGNO,P&R 2 GIUGNO,41.105511127862606,16.874910253135322,,,0,,,0,,
06211001,06211001,Repubblica I,Repubblica I,41.10801607947366,16.874243787005053,,,0,,,0,,
06211002,06211002,Repubblica II,Repubblica II,41.110103507983176,16.873999421909392,,,0,,,0,,
06211003,06211003,d'Italia-Galiani,d'Italia-Galiani,41.112709232478224,16.873644712725355,,,0,,,0,,
06211102,06211102,Repubblica-Volta,Repubblica-Volta,41.11209193270711,16.8734659555127,,,0,,,0,,
06211103,06211103,Repubblica-Fiore,Repubblica-Fiore,41.110288287576324,16.87370835201767,,,0,,,0,,
06211104,06211104,Repubblica-Armenise,Repubblica-Armenise,41.10847435180345,16.87392968193823,,,0,,,0,,
06223001,06223001,Di Vittorio I,Di Vittorio I,41.107159844429574,16.876382705657548,,,0,,,0,,
06223101,06223101,Di Vittorio II,Di Vittorio II,41.107476477224445,16.87662413071503,,,0,,,0,,
06235001,06235001,Einaudi - De Gasperi,Einaudi - De Gasperi,41.10046087201415,16.872299391027283,,,0,,,0,,
06235002,06235002,Einaudi (poste),Einaudi (poste),41.100498943469816,16.874242557678674,,,0,,,0,,
06235003,06235003,Einaudi-Resistenza,Einaudi-Resistenza,41.10077129400343,16.877096972175206,,,0,,,0,,
06235004,06235004,Einaudi-Fanelli,Einaudi-Fanelli,41.101432688478376,16.880519745073904,,,0,,,0,,
06235005,06235005,Einaudi-Turati,Einaudi-Turati,41.101974603042116,16.88246713165322,,,0,,,0,,
06235006,06235006,Einaudi-Tridente,Einaudi-Tridente,41.10266181044154,16.885290479949756,,,0,,,0,,
06235101,06235101,Giulio Cesare,Giulio Cesare,41.10289833191243,16.88537963133104,,,0,,,0,,
06235102,06235102,Einaudi-Fortunato,Einaudi-Fortunato,41.10212775586234,16.88219074804175,,,0,,,0,,
06235103,06235103,Einaudi-Fanelli,Einaudi-Fanelli,41.10167298523673,16.88048068276209,,,0,,,0,,
06235104,06235104,Einaudi - Resistenza,Einaudi - Resistenza,41.10098153677635,16.877046699533913,,,0,,,0,,
06235105,06235105,Einaudi-De Gasperi,Einaudi-De Gasperi,41.10066407734418,16.872580334611964,,,0,,,0,,
06244001,06244001,Falcone Borsellino I,Falcone Borsellino I,41.096863815288884,16.873843026112148,,,0,,,0,,
06244002,06244002,Falcone BorsellinoII,Falcone Borsellino II,41.09956196645909,16.873799963133592,,,0,,,0,,
06249001,06249001,Fanelli 228N,Fanelli 228N,41.083433102307744,16.886661136529852,,,0,,,0,,
06249002,06249002,Fanelli 224,Fanelli 224,41.087823872790466,16.88462485466104,,,0,,,0,,
06249003,06249003,Fanelli-Martino,Fanelli-Martino,41.090858042706074,16.883793300337366,,,0,,,0,,
06249004,06249004,Fanelli (caserma),Fanelli (caserma),41.09692412087085,16.88225955775261,,,0,,,0,,
06249005,06249005,Fanelli-str. Barone,Fanelli-str. Barone,41.09994777668309,16.880254594159872,,,0,,,0,,
06249006,06249006,Fanelli (Caserma CC),Fanelli (Caserma CC),41.09553312597168,16.88290792901982,072006,,0,,,0,,
06249008,06249008,Fanelli-Dorso,Fanelli-Dorso,41.103336918740744,16.879249082843863,,,0,,,0,,
06249101,06249101,Fanelli - Jacini,Fanelli - Jacini,41.104220267133705,16.87889740527608,,,0,,,0,,
06249102,06249102,Fanelli(Vigna Laura),Fanelli(Vigna Laura),41.101976072032166,16.879382909054204,,,0,,,0,,
06249103,06249103,Fanelli-str. Barone,Fanelli-str. Barone,41.100209665268274,16.87995740699472,,,0,,,0,,
06249104,06249104,Fanelli (C.Vitrani),Fanelli (C.Vitrani),41.097030312497296,16.881965521823624,,,0,,,0,,
06249105,06249105,Fanelli (Caserma CC),Fanelli (Caserma CC),41.09550056054011,16.882770841184165,,,0,,,0,,
06249106,06249106,Fanelli (Green Park),Fanelli (Green Park),41.09095689765719,16.883646558039157,,,0,,,0,,
06249107,06249107,Fanelli (distr.),Fanelli (distributore),41.08776156416627,16.884463179136873,,,0,,,0,,
06249108,06249108,Fanelli(Giardinelli),Fanelli(Giardinelli),41.083585232571465,16.88649679594446,,,0,,,0,,
06275001,06275001,Lojacono (Showville),Lojacono (Showville),41.09078597449404,16.890166618027607,,,0,,,0,,
06293001,06293001,Hahnemann-Amendola,Hahnemann-Amendola,41.097839403793785,16.888571122958748,,,0,,,0,,
06293002,06293002,Mater Dei,Mater Dei,41.09836202125352,16.88653322702513,,,0,,,0,,
06306101,06306101,Lattanzio-Nizza,Lattanzio-Nizza,41.115694359177354,16.87821667342386,,,0,,,0,,
06306102,06306102,Lattanzio-Di Savoia,Lattanzio-Di Savoia,41.11491625043919,16.878895256572957,,,0,,,0,,
06402001,06402001,Ambasciatori,Ambasciatori,41.10614379768877,16.8824997339706,,,0,,,0,,
06402002,06402002,Omodeo-Amendola,Omodeo-Amendola,41.10692753887481,16.884514366853434,,,0,,,0,,
06402101,06402101,Omodeo (Campus),Omodeo (Campus),41.1072081321718,16.884324045815585,,,0,,,0,,
06402102,06402102,Omodeo-Salvemini,Omodeo-Salvemini,41.10658178172462,16.882770311776948,,,0,,,0,,
06405001,06405001,S. Marcello,S. Marcello,41.107570045270634,16.87951044591942,,,0,,,0,,
06405101,06405101,Orabona(Politecnico),Orabona(Politecnico),41.10770539364775,16.879448748993514,,,0,,,0,,
06439001,06439001,Postiglione-DeiMille,Postiglione-DeiMille,41.11290580695272,16.87871073411272,,,0,,,0,,
06439101,06439101,Postiglione-Amendola,Postiglione-Amendola,41.1137500406551,16.880396161728584,,,0,,,0,,
06439102,06439102,Postiglione-Pisacane,Postiglione-Pisacane,41.11271659178462,16.87725330336035,,,0,,,0,,
06447001,06447001,Re David (Poliba),Re David (Poliba),41.10836695298387,16.877269223437857,,,0,,,0,,
06447002,06447002,ReDavid(Politecnico),Re David (Politecnico),41.1112193535184,16.876537687666374,072006,,0,,,0,,
06447003,06447003,Re David-Postiglione,Re David-Postiglione,41.11209688562884,16.876384656069224,,,0,,,0,,
06447100,06447100,Re David (Accademia),Re David (Accademia),41.11106200436741,16.87649799234958,,,0,,,0,,
06447101,06447101,Re David-Postiglione,Re David-Postiglione,41.11182748235369,16.876327776377483,,,0,,,0,,
06447102,06447102,ReDavid(ist.Panetti),Re David (ist.Panetti),41.11018955633344,16.876703867963304,,,0,,,0,,
06447103,06447103,ReDavid (Poliba),Re David (Poliba),41.10888863515741,16.876963809944524,,,0,,,0,,
06473001,06473001,Salvemini-Orabona,Salvemini-Orabona,41.10690939207901,16.881299875119154,,,0,,,0,,
06473101,06473101,Salvemini-Omodeo,Salvemini-Omodeo,41.106785915268595,16.881019897065023,,,0,,,0,,
06499001,06499001,Sturzo - De Gasperi,Sturzo - De Gasperi,41.10691964091634,16.87238654564086,,,0,,,0,,
06499101,06499101,Sturzo - B. Croce,Sturzo - B. Croce,41.107157022119246,16.87278042816708,,,0,,,0,,
06505C00,06505C00,Torre di Mizzo,Torre di Mizzo,41.091731915099274,16.89892980521477,,,0,,,0,,
06509102,06509102,Tridente,Tridente,41.10069951328964,16.885177960317254,,,0,,,0,,
06518001,06518001,Turati (Gorjux),Turati (Gorjux),41.098808592094,16.88456980861681,,,0,,,0,,
06519001,06519001,Tupputi-Giusso,Tupputi-Giusso,41.0935992847658,16.890245617369256,,,0,,,0,,
06519002,06519002,Tupputi (VV.F.),Tupputi (VV.F.),41.09117087917237,16.88995453651298,,,0,,,0,,
06531001,06531001,d'Italia-Ciaia,d'Italia-Ciaia,41.11492669938651,16.873446524322024,,,0,,,0,,
06531002,06531002,d'Italia-Pisanelli,d'Italia-Pisanelli,41.11622287119903,16.87329750284286,,,0,,,0,,
06531101,06531101,Unità d'Italia (CC),Unità d'Italia (CC),41.11430731548815,16.873185218929205,,,0,,,0,,
07023101,07023101,Ballestrero I,Ballestrero I,41.11567905902126,16.89550141559009,,,0,,,0,,
07023102,07023102,Ballestrero II,Ballestrero II,41.11526887271397,16.897618023019547,,,0,,,0,,
07023103,07023103,Ballestrero III,Ballestrero III,41.115588686808906,16.903926713987296,,,0,,,0,,
07075001,07075001,Capruzzi-Lattanzio,Capruzzi-Lattanzio,41.117427619049245,16.877215512248977,,,0,,,0,,
07075101,07075101,Capruzzi-Mola,Capruzzi-Mola,41.117545767758834,16.877198456034552,,,0,,,0,,
07090101,07090101,Carulli-Abbrescia,Carulli-Abbrescia,41.12025194419077,16.875314386271402,,,0,,,0,,
07090102,07090102,Sonnino-Carabellese,Sonnino-Carabellese,41.12042286096602,16.879564945099766,,,0,,,0,,
07099C01,07099C01,Camera Commercio,Camera Commercio,41.12489293342387,16.8724936659686,,,0,,,0,,
07165001,07165001,De Giosa,De Giosa,41.12127471314814,16.873857362708765,,,0,,,0,,
07222001,07222001,Crollalanza-Bruno,Crollalanza-Bruno,41.1242545528381,16.87532056857509,,,0,,,0,,
07222002,07222002,Crollalanza-Diaz,Crollalanza-Diaz,41.12246897832932,16.87882717044587,,,0,,,0,,
07222003,07222003,Crollalanza-Eroi,Crollalanza-Eroi,41.12504759423657,16.873890372050923,,,0,,,0,,
07222101,07222101,Crollalanza-Diaz,Crollalanza-Diaz,41.12273888760072,16.878383253151362,,,0,,,0,,
07222102,07222102,Crollalanza-Bruno,Crollalanza-Bruno,41.12424239803628,16.875624992482322,,,0,,,0,,
07222103,07222103,Crollalanza-Eroi,Crollalanza-Eroi,41.12508877869867,16.87404956517244,,,0,,,0,,
07288101,07288101,I. Traiano-Guarnieri,I. Traiano-Guarnieri,41.116248680595035,16.893179599702158,,,0,,,0,,
07324101,07324101,L. di Savoia,L. di Savoia,41.11962178845373,16.87389590961939,,,0,,,0,,
07381001,07381001,N.Sauro (Provincia),N.Sauro (Provincia),41.121450593412206,16.881899596520327,,,0,,,0,,
07381002,07381002,N.Sauro (INPS),N.Sauro (INPS),41.12047451280151,16.885095144515702,,,0,,,0,,
07381003,07381003,N.Sauro (Forestale),N.Sauro (Forestale),41.11966225124493,16.887470101090575,,,0,,,0,,
07381101,07381101,Forestale Fronte,Forestale Fronte,41.11955112009969,16.88848030913235,,,0,,,0,,
07381102,07381102,INPS fronte,INPS fronte,41.120562201624075,16.885237539581073,,,0,,,0,,
07381103,07381103,Reg. Puglia fronte,Reg. Puglia fronte,41.12133133936885,16.88280944011291,,,0,,,0,,
07434101,07434101,Poerio,Poerio,41.117263402940765,16.88830012499403,,,0,,,0,,
07492101,07492101,Sonnino-Matteotti,Sonnino-Matteotti,41.11782456525277,16.88627070263785,,,0,,,0,,
07492102,07492102,Sonnino-Corfù,Sonnino-Corfù,41.11850466678609,16.884516871216146,,,0,,,0,,
07492103,07492103,Sonnino-Addis Abeba,Sonnino-Addis Abeba,41.11956352707176,16.881785234825283,,,0,,,0,,
07511001,07511001,Perotti,Perotti,41.11752786399634,16.891880399760502,,,0,,,0,,
07511101,07511101,Pane&Pomodoro,Pane&Pomodoro,41.11757248982001,16.892549441755023,,,0,,,0,,
07511C00,07511C00,P&R Pane&Pomodoro,P&R Pane&Pomodoro,41.116708806449104,16.898580052468123,,,0,,,0,,
08003001,08003001,Adriatico (CTO),Adriatico (CTO),41.136563543488656,16.84369520755684,,,0,,,0,,
08003002,08003002,Adriatico-Starita,Adriatico-Starita,41.13731324894211,16.841034831225084,,,0,,,0,,
08003101,08003101,Adriatico-Starita,Adriatico-Starita,41.136727152590844,16.84348821487156,,,0,,,0,,
08003102,08003102,Adriatico-Starita,Adriatico-Starita,41.13733763304656,16.84124658709284,,,0,,,0,,
08039001,08039001,Brigata Regina-Lopez,Brigata Regina-Lopez,41.1259776476549,16.85180273536103,,,0,,,0,,
08039003,08039003,B. Regina (scuola),B. Regina (scuola),41.12451647591908,16.85186122154613,,,0,,,0,,
08039101,08039101,Brigata Regina-Lopez,Brigata Regina-Lopez,41.12646205231214,16.85152681872971,,,0,,,0,,
08039103,08039103,B. Regina (scuola),B. Regina (scuola),41.12453551239817,16.85168384930534,,,0,,,0,,
08040001,08040001,B.Regina - Nicolai,B.Regina - Nicolai,41.120632691354245,16.85219113797061,,,0,,,0,,
08040101,08040101,B. Bari 102A,B. Bari 102A,41.11977422548717,16.852064946399935,,,0,,,0,,
08126102,08126102,Crisanzio-S.Visconti,Crisanzio-S.Visconti,41.11953911267818,16.86379402784001,,,0,,,0,,
08126103,08126103,Crisanzio-Trevisani,Crisanzio-Trevisani,41.11941750481344,16.860624430775943,,,0,,,0,,
08126104,08126104,Crisanzio-Ravanas,Crisanzio-Ravanas,41.11929302344063,16.858553947667097,,,0,,,0,,
08129001,08129001,Crispi-Pagano,Crispi-Pagano,41.12111805997536,16.849697661604203,,,0,,,0,,
08129002,08129002,Crispi-De Bernardis,Crispi-De Bernardis,41.122378583116394,16.85303588713078,,,0,,,0,,
08129003,08129003,Crispi (tribunale),Crispi (tribunale),41.12322356874566,16.85524996848465,,,0,,,0,,
08129004,08129004,Crispi-Ravanas,Crispi-Ravanas,41.124622910429906,16.859006036546003,,,0,,,0,,
08129005,08129005,Crispi-Garibaldi,Crispi-Garibaldi,41.125185983338824,16.860506288557175,,,0,,,0,,
08129101,08129101,Crispi-Trevisani,Crispi-Trevisani,41.12511771696799,16.859986375845487,,,0,,,0,,
08129102,08129102,Crispi-Ravanas,Crispi-Ravanas,41.12447471821855,16.85825478342171,,,0,,,0,,
08129103,08129103,Crispi (tribunale),Crispi (tribunale),41.12325173999009,16.855072340145522,,,0,,,0,,
08129104,08129104,Crispi - B. Regina,Crispi - B. Regina,41.121793343829744,16.851134408459572,,,0,,,0,,
08129105,08129105,Crispi (ponte),Crispi (ponte),41.12098450117053,16.848987254626955,,,0,,,0,,
08156001,08156001,Cristoforis-Crispi,De Cristoforis-Crispi ,41.124073390785696,16.856283761769117,,,0,,,0,,
08156002,08156002,Cristoforis-Mazzini,De Cristoforis-Mazzini,41.1250984161236,16.85620839862278,,,0,,,0,,
08156101,08156101,Cristoforis-Crispi,Cristoforis-Crispi,41.12395326922595,16.856134880265856,,,0,,,0,,
08192002,08192002,Carboneria-Regina,Carboneria-Regina,41.12504696850106,16.851264409857336,,,0,,,0,,
08192101,08192101,Carboneria(giardino),Carboneria(giardino),41.12517004024348,16.851287137788997,,,0,,,0,,
08229001,08229001,Di Maratona-Mascagni,Di Maratona-Mascagni,41.130262074876704,16.838101827944215,,,0,,,0,,
08229101,08229101,Maratona-Mascagni,Maratona-Mascagni,41.130219144841774,16.837711531990145,,,0,,,0,,
08229C00,08229C00,Piscine Comunali,Piscine Comunali,41.13339862203774,16.83760960869343,,,0,,,0,,
08267001,08267001,Garibaldi-V.Emanuele,Garibaldi-V.Emanuele,41.12541819861813,16.862973745368024,,,0,,,0,,
08276001,08276001,Giordano-Verdi,Giordano-Verdi,41.13596470216554,16.834864083497752,,,0,,,0,,
08276002,08276002,Pinto (Fiera),Pinto (Fiera),41.13762933389775,16.837974007081193,,,0,,,0,,
08276102,08276102,Fiera fronte,Fiera fronte,41.13779649145888,16.83765860533034,,,0,,,0,,
08291001,08291001,Italia-Figoroa,Italia-Figoroa,41.11791164959691,16.85798505950574,,,0,,,0,,
08291002,08291002,Italia-Eritrea,Italia-Eritrea,41.118215314786056,16.862697888158543,,,0,,,0,,
08311101,08311101,Libertà-Don Bosco,Libertà-Don Bosco,41.119982900314405,16.856253877211127,,,0,,,0,,
08333101,08333101,Libertà-Don Bosco,Libertà-Don Bosco,41.11947549353584,16.85618766500635,,,0,,,0,,
08354001,08354001,Mazzini 136D,Mazzini 136D,41.125177168342496,16.854248003420754,,,0,,,0,,
08354002,08354002,Bianchi Dottula,Bianchi Dottula,41.12523467863082,16.855607222335685,,,0,,,0,,
08354101,08354101,Mazzini-Bottego,Mazzini-Bottego,41.125282476597235,16.853906531231335,,,0,,,0,,
08366101,08366101,Mons.Nitti-Don Bosco,Mons.Nitti-Don Bosco,41.11992144550196,16.8540687918256,,,0,,,0,,
08378001,08378001,Napoli (uscita 4),Napoli (uscita 4),41.13547714061104,16.81171874362767,,,0,,,0,,
08378002,08378002,Napoli (autoclub),Napoli (autoclub),41.13373871978894,16.819280355548745,,,0,,,0,,
08378003,08378003,Napoli(distributore),Napoli (distributore),41.13243576830914,16.8235471104493,,,0,,,0,,
08378004,08378004,Napoli (casa riposo),Napoli (casa riposo),41.129696447336265,16.83265928983556,,,0,,,0,,
08378005,08378005,Napoli (C. Briscese),Napoli (C. Briscese),41.1288088519886,16.835524252262438,,,0,,,0,,
08378006,08378006,Napoli (Caserma),Napoli (Caserma),41.12783114552114,16.838736273353458,,,0,,,0,,
08378007,08378007,Genio Militare,Genio Militare,41.12748746981123,16.842887489880724,,,0,,,0,,
08378008,08378008,Napoli 316,Napoli 316,41.12736345647986,16.84577047154901,,,0,,,0,,
08378009,08378009,Napoli-Paoli,Napoli-Paoli,41.12723726938121,16.84833099375389,,,0,,,0,,
08378010,08378010,Napoli-Casavola,Napoli-Casavola,41.13162354641413,16.82642051757653,072006,,0,,,0,,
08378101,08378101,Napoli-Canudo,Napoli-Canudo,41.127293743515196,16.85029647271058,,,0,,,0,,
08378102,08378102,Napoli-Paoli,Napoli-Paoli,41.127371113035935,16.8482203728634,,,0,,,0,,
08378103,08378103,Napoli-Monte Lungo,Napoli-Monte Lungo,41.12748450429532,16.845823449421065,,,0,,,0,,
08378104,08378104,Napoli (Genio),Napoli (Genio),41.12761106458569,16.842949884710244,,,0,,,0,,
08378105,08378105,Napoli-Di Maratona,Napoli-Di Maratona,41.12811286794206,16.8383637230106,,,0,,,0,,
08378106,08378106,Napoli-Ligonzo,Napoli-Ligonzo,41.129037524859896,16.835245244434546,,,0,,,0,,
08378107,08378107,Napoli (casa riposo),Napoli (casa riposo),41.12987762866134,16.832494986815536,,,0,,,0,,
08378108,08378108,Napoli-Corrado,Napoli-Corrado,41.13266774101115,16.823642909927933,,,0,,,0,,
08378109,08378109,Napoli-Costa,Napoli-Costa,41.133785467916184,16.820010498142697,,,0,,,0,,
08378110,08378110,Costa,Costa,41.13596877281274,16.818981218980156,072006,,0,,,0,,
08378111,08378111,Napoli-Casavola,Napoli-Casavola,41.131827592045,16.826313384802738,072006,,0,,,0,,
08380101,08380101,Napoli-Cimarosa,Napoli-Cimarosa,41.13643126179629,16.811533766406782,,,0,,,0,,
08390101,08390101,Nicolai - Majer,Nicolai - Majer,41.12057890525657,16.854860837819533,,,0,,,0,,
08435001,08435001,Garibaldi-Visconti,Garibaldi-Visconti,41.125079111105336,16.862526111424003,,,0,,,0,,
08441101,08441101,Q. Sella-Calefati,Q. Sella-Calefati,41.12395627560836,16.864134619355106,,,0,,,0,,
08441102,08441102,Q. Sella-Dante,Q. Sella-Dante,41.122088491997935,16.86431840743716,,,0,,,0,,
08441103,08441103,Q.Sella-Italia,Q.Sella-Italia,41.119176453768546,16.86462021733305,,,0,,,0,,
08441104,08441104,Q. Sella-Crisanzio,Q. Sella-Crisanzio,41.11986486201471,16.86454179877059,,,0,,,0,,
08446001,08446001,Portoghese I,Portoghese I,41.1303560243987,16.839642996384075,,,0,,,0,,
08446101,08446101,Portoghese II,Portoghese II,41.13047563927603,16.839717915723014,,,0,,,0,,
08454001,08454001,Romito (SS16),Romito (SS16),41.13834474263291,16.808963062339423,,,0,,,0,,
08454102,08454102,Romito-Perosi,Romito-Perosi,41.1378441581999,16.810848976434972,,,0,,,0,,
08478001,08478001,S.Girolamo-Fallacara,S.Girolamo-Fallacara,41.136799246257254,16.816561284467074,,,0,,,0,,
08478002,08478002,S.Girolamo-Costa,S.Girolamo-Costa,41.13633421709597,16.81953552758377,,,0,,,0,,
08478003,08478003,S.Girolamo-Corrado,S.Girolamo-Corrado,41.135836289673385,16.82263721550944,,,0,,,0,,
08478004,08478004,S. Girolamo-C.Nicola,S. Girolamo-C.Nicola,41.137146490751924,16.814296853451296,,,0,,,0,,
08478103,08478103,S. Girolamo-Cimarosa,S. Girolamo-Cimarosa,41.13747337303062,16.813396280159303,,,0,,,0,,
08493001,08493001,Starita (CUS),Starita (CUS),41.13530802175336,16.844424965897094,,,0,,,0,,
08493101,08493101,Starita (CTO),Starita (CTO),41.13583224284027,16.84429461807222,,,0,,,0,,
08504001,08504001,Fiore-Carboneria,Fiore-Carboneria,41.1259461479056,16.847835458469657,,,0,,,0,,
08504101,08504101,Fiore (Necropoli),Fiore (Necropoli),41.12589194444468,16.847517917214336,,,0,,,0,,
08546001,08546001,S.Girolamo-Cilea,S.Girolamo-Cilea,41.13548379176197,16.825488497451556,,,0,,,0,,
08546003,08546003,Lido Trampolino,Lido Trampolino,41.13519335335476,16.828993906521436,,,0,,,0,,
08546004,08546004,V.Westerhout(Pineta),V.Westerhout(Pineta),41.13486072896321,16.831401191891768,,,0,,,0,,
08546102,08546102,V.Westerhout(Pineta),V.Westerhout(Pineta),41.13498322292911,16.83137484735826,,,0,,,0,,
08546103,08546103,Lido Trampolino,Lido Trampolino,41.135260766381485,16.829285625544657,,,0,,,0,,
08546104,08546104,V.Westerhout-Casav.,V.Westerhout-Casavola,41.13557901435641,16.82685467626765,,,0,,,0,,
08555001,08555001,Verdi (Fiera),Verdi (Fiera),41.135226887199444,16.835060900039785,,,0,,,0,,
08555101,08555101,Verdi (S.Francesco),Verdi (S.Francesco),41.13563026284492,16.83394459022723,,,0,,,0,,
